license_number,company_name,company_dba,license_classification,,# in each license,issued_date,naics_code,naics_name,,predirection,address_line1,address_line2,street_type,postdirection,unit_suite,city,state,postal_code,address_concat,address_api,longitude,latitude,disinvested_neighborhood,council_district,npu
GBL-0124-26500,Vine City Vending LLC,Vine City Food Mart,Accommodation and Food Services,license_classification,,2025-02-24 23:06:06,445120,Convenience Stores ,naics_name,,901 Joseph E Boone NW Atlanta Georgia 30314,,,,,,,,901 Joseph E Boone NW Atlanta Georgia 30314 nan nan nan nan nan,"901 Joseph E Boone Blvd NW, Atlanta, Georgia, 30314",-84.4170813,33.76376029,TRUE,3,L
GBL-0223-19331,"Fourth Space ATL, LLC",,Accommodation and Food Services,Accommodation and Food Services,,2025-02-12 13:12:10,453920,Art Dealers ,Convenience Stores ,,"659 Auburn Avenue NE, Suite 503",,,,,Atlanta,GA,30312,"659 Auburn Avenue NE, Suite 503 nan nan Atlanta GA 30312","659 Auburn Ave NE, Apartment 503, Atlanta, Georgia, 30312",-84.3659827,33.75698939,FALSE,2,M
GBL-0224-28261,Hardin Retail Management LLC,,Accommodation and Food Services,"Admin, Support, Waste Mgt & Remediation Svc",,2025-02-16 18:48:21,424410,General Line Grocery Merchant Wholesalers ,Art Dealers ,,2179,VERBENA,ST,NW,,Atlanta,GA,30314,2179 VERBENA ST Atlanta GA 30314,"2179 Verbena St NW, Atlanta, Georgia, 30314",-84.45997804,33.75548974,TRUE,3,J
GBL-0422-11835,"DoorDash Essentials, LLC",DashMart,Accommodation and Food Services,"Arts, Entertainment & Recreation",,2025-01-29 13:20:58,445120,Convenience Stores ,General Line Grocery Merchant Wholesalers ,,1360,SEABOARD INDUSTRIAL,BLVD,NW,,Atlanta,GA,30318,1360 SEABOARD INDUSTRIAL BLVD Atlanta GA 30318,"1360 Seaboard Industrial Blvd NW, Atlanta, Georgia, 30318",-84.43220653,33.809205,FALSE,9,D
GBL-0423-20227,Innovation Luggage Inc,Touro Luggage,Accommodation and Food Services,Construction,,2025-02-21 23:07:34,448320,Luggage and Leather Goods Stores ,Luggage and Leather Goods Stores ,NE,3500 Peachtree,,RD,,STE E27,Atlanta,GA,30326,3500 Peachtree nan RD Atlanta GA 30326,"3500 Peachtree Rd NE, Atlanta, Georgia, 30326",-84.3624323,33.85276538,FALSE,7,B
GBL-0423-20653,CLJ Investments Corporation,Kilwin's,Accommodation and Food Services,Disabled Veteran,,2025-02-15 18:52:12,445292,Confectionery and Nut Stores ,Confectionery and Nut Stores ,,1380 Atlantic Dr.,,,,14160,Atlanta,GA,30363,1380 Atlantic Dr. nan nan Atlanta GA 30363,"1380 Atlantic Dr NW, Atlanta, Georgia, 30363",-84.39792203,33.79287802,FALSE,3,E
GBL-0424-30054,Lee Street Meats LLC,,Accommodation and Food Services,Educational Services,,2025-02-14 13:05:55,445110,Supermarkets and Other Grocery (except Convenience) Stores ,Supermarkets and Other Grocery (except Convenience) Stores ,,1265,LEE,Street,SW,,Atlanta,GA,30310,1265 LEE Street Atlanta GA 30310,"1265 Lee St SW, Atlanta, Georgia, 30310",-84.42456483,33.72061646,TRUE,4,S
GBL-0524-30618,ABM Foodmart LLC,Mr. Sam,Accommodation and Food Services,Health Care & Social Assistance,,2025-02-16 18:47:13,445120,Convenience Stores ,Food (Health) Supplement Stores ,,215 Forsyth,,ST,SW,,Atlanta,GA,30303,215 Forsyth nan ST Atlanta GA 30303,"215 Forsyth St SW, Atlanta, Georgia, 30303",-84.3967857,33.74894264,FALSE,4,M
GBL-0524-30618,ABM Foodmart LLC,Mr. Sam,Accommodation and Food Services,Information,,2025-02-16 18:47:13,445120,Convenience Stores ,Fruit and Vegetable Markets ,,215 Forsyth,,ST,SW,,Atlanta,GA,30303,215 Forsyth nan ST Atlanta GA 30303,"215 Forsyth St SW, Atlanta, Georgia, 30303",-84.3967857,33.74894264,FALSE,4,M
GBL-0623-21399,"A & M Super Thrift Food Mart, LLC",,Accommodation and Food Services,Management of Companies and Enterprises,,2025-01-24 11:05:41,445120,Convenience Stores ,All Other Miscellaneous Store Retailers (except Tobacco Stores) ,,2079,JOSEPH E BOONE,Boulevard,NW,,Atlanta,GA,,2079 JOSEPH E BOONE Boulevard Atlanta GA nan,"2079 Joseph E Boone Blvd NW, Atlanta, Georgia, 30314",-84.45630836,33.76402399,TRUE,3,J
GBL-0824-32478,"The Herb Shop of Vinings, Inc.",,Accommodation and Food Services,Manufacturing,,2025-02-13 15:07:46,446191,Food (Health) Supplement Stores ,Vending Machine Operators ,,2250 Marietta,,BLVD,NW,214,Atlanta,GA,30318,2250 Marietta nan BLVD Atlanta GA 30318,"2250 Marietta Blvd, Atlanta, Georgia, 30318",-84.46382024,33.80585723,TRUE,9,G
GBL-0923-23285,Rhinehart Farms LLC,,Accommodation and Food Services,Non-Profit,,2025-02-15 18:36:29,445230,Fruit and Vegetable Markets ,All Other General Merchandise Stores ,,2176,COUNTY LINE,RD,SW,,Atlanta,GA,30311,2176 COUNTY LINE RD Atlanta GA 30311,"2176 County Line Rd SW, Atlanta, Georgia, 30331",-84.53436927,33.69527013,TRUE,11,P
GBL-1121-08037,"WBP 3121 East Shadowlawn, LLC",Perrine's Wine Shop,Accommodation and Food Services,Other Services except Public Administration,,2025-01-22 11:34:43,453998,All Other Miscellaneous Store Retailers (except Tobacco Stores) ,All Other Amusement and Recreation Industries ,,3112 East Shadowlawn,,AVE,NE,,Atlanta,GA,30305,3112 East Shadowlawn nan AVE Atlanta GA 30305,"3112 E Shadowlawn Ave NE, Atlanta, Georgia, 30305",-84.37435363,33.83990762,FALSE,7,B
GBL-1121-08037,"WBP 3121 East Shadowlawn, LLC",Perrine's Wine Shop,Accommodation and Food Services,Professional/Scientific/Technical Services,,2025-01-22 11:34:43,453998,All Other Miscellaneous Store Retailers (except Tobacco Stores) ,Family Clothing Stores ,,3112 East Shadowlawn,,AVE,NE,,Atlanta,GA,30305,3112 East Shadowlawn nan AVE Atlanta GA 30305,"3112 E Shadowlawn Ave NE, Atlanta, Georgia, 30305",-84.37435363,33.83990762,FALSE,7,B
GBL-1121-08037,"WBP 3121 East Shadowlawn, LLC",Perrine's Wine Shop,Accommodation and Food Services,Public Administration,,2025-01-22 11:34:43,453998,All Other Miscellaneous Store Retailers (except Tobacco Stores) ,Beauty Salons ,,3112 East Shadowlawn,,AVE,NE,,Atlanta,GA,30305,3112 East Shadowlawn nan AVE Atlanta GA 30305,"3112 E Shadowlawn Ave NE, Atlanta, Georgia, 30305",-84.37435363,33.83990762,FALSE,7,B
GBL-1121-08153,"McDaniel Store, LLC",Welcome Foods McDaniel,Accommodation and Food Services,Real Estate Rental and Leasing,,2025-02-07 00:00:00,445110,Supermarkets and Other Grocery (except Convenience) Stores ,Fitness and Recreational Sports Centers ,,1003 McDaniel,,ST,SW,,Atlanta,GA,30310,1003 McDaniel nan ST Atlanta GA 30310,"1003 McDaniel St SW, Atlanta, Georgia, 30310",-84.40192925,33.72757029,TRUE,12,V
GBL-1123-24557,"Oakland City Food Mart, LLC",Oakland City Food Mart,Accommodation and Food Services,Retail Trade,,2025-02-11 22:08:35,445120,Convenience Stores ,General Rental Centers,,976 oakland dr sw,,,SW,,atlanta,GA,30310,976 oakland dr sw nan nan atlanta GA 30310,"976 Oakland Dr SW, Atlanta, Georgia, 30310",-84.42690104,33.72827928,TRUE,4,S
GBL-0125-35527,Battle Buddy Vending Solutions LLC,,Accommodation and Food Services,Transportation & Warehousing,,2025-03-12 16:16:36,454210,Vending Machine Operators ,Amusement Arcades,,1201 W Peachtree ST NW,,,,STe 2625 PMB 655968,Atlanta,GA,30309,1201 W Peachtree ST NW nan nan Atlanta GA 30309,"1201 W Peachtree St NW, Atlanta, Georgia, 30309",-84.38750492,33.78721491,FALSE,District 6,E
GBL-0125-35869,Nasdaqq300 LLLP,Essential market,Accommodation and Food Services,Utilities,,2025-03-14 05:57:00,445120,Convenience Stores ,Museums ,,844 martin luther king jr sr sw,,,,,Atlanta,GA,30314,844 martin luther king jr sr sw nan nan Atlanta GA 30314,"844 Martin Luther King Jr Dr SW, Atlanta, Georgia, 30314",-84.41514569,33.75465926,FALSE,District 4,T
GBL-0325-38791,Reese Vending,,Accommodation and Food Services,Wholesale Trade,,2025-03-27 11:37:00,454210,Vending Machine Operators ,Amusement and Theme Parks ,SW,3153 latona,,DR,SW,,Atlanta,GA,30354,3153 latona nan DR Atlanta GA 30354,"3153 Latona Dr SW, Atlanta, Georgia, 30354",-84.3957735,33.66858944,TRUE,District 12,Z
GBL-0424-30252,Nourish and Bloom  LLC,,Accommodation and Food Services,0,,2025-08-08 23:06:09,454210,Vending Machine Operators ,Golf Courses and Country Clubs,,2287 Cascade Rd SW,,RD,SW,Unit A,Atlanta,GA,30311,2287 Cascade Rd SW nan RD Atlanta GA 30311,"2287 Cascade Rd SW, Atlanta, Georgia, 30311",-84.46397201,33.7223961,FALSE,District 11,I
GBL-0425-39010,RJR management LLC,,Accommodation and Food Services,,,2025-04-25 05:35:00,424410,General Line Grocery Merchant Wholesalers ,Nail Salons ,,2179,VERBENA,Street,NW,,Atlanta,GA,,2179 VERBENA Street Atlanta GA nan,"2179 Verbena St NW, Atlanta, Georgia, 30314",-84.45994283,33.75544913,TRUE,District 3,J
GBL-0625-41075,Mawa African market LLC,,Accommodation and Food Services,,,2025-07-01 10:32:59,445110,Supermarkets and Other Grocery (except Convenience) Stores ,Mens Clothing Stores ,,1830,Piedmont,AVE,NE,Suite G,Atlanta,GA,30324,1830 Piedmont AVE Atlanta GA 30324,"1830 Piedmont Ave NE, Atlanta, Georgia, 30324",-84.367845,33.805739,FALSE,District 6,F
GBL-0725-41403,Jade Journeys Vending,,Accommodation and Food Services,,,2025-07-11 15:11:04,454210,Vending Machine Operators ,Barber Shops ,,50 Peachtree,,ST,NW,Apt 217,Atlanta,GA,30303,50 Peachtree nan ST Atlanta GA 30303,"50 Peachtree St, Atlanta, Georgia, 30303",-84.38928859,33.7554656,FALSE,District 2,M
GBL-1221-08736,"Tiringo Zeleke, LLC",FAIR STREET SUPERMARKET,Accommodation and Food Services,,,2025-07-18 08:58:52,445120,Convenience Stores ,"Cosmetics, Beauty Supplies, and Perfume Stores ",,1021,FAIR,ST,SW,,ATLANTA,GA,30314,1021 FAIR ST ATLANTA GA 30314,"1021 Fair St SW, Atlanta, Georgia, 30314",-84.421301,33.74919967,TRUE,District 4,T
GBL-0323-19572,"Restore Consulting Group, LLC.",,"Admin, Support, Waste Mgt & Remediation Svc",,,2025-02-13 17:07:24,453998,All Other Miscellaneous Store Retailers (except Tobacco Stores) ,Clothing Accessories Stores ,,903 Huff,,RD,NW,,Atlanta,GA,30318,903 Huff nan RD Atlanta GA 30318,"903 Huff Rd NW, Atlanta, Georgia, 30318",-84.41750073,33.78932128,FALSE,9,D
GBL-0421-02252,"Six Continents Hotels, Inc.",,"Admin, Support, Waste Mgt & Remediation Svc",,,2025-01-31 13:35:11,452319,All Other General Merchandise Stores ,Tobacco Stores ,,1289 Seaboard Industrial,,BLVD,,,Atlanta,GA,30080,1289 Seaboard Industrial nan BLVD Atlanta GA 30080,"1289 Seaboard Industrial Blvd NW, Atlanta, Georgia, 30318",-84.43020225,33.80782626,FALSE,9,D
GBL-0521-03259,"United Gaming, LLC",,"Admin, Support, Waste Mgt & Remediation Svc",,,2025-02-04 17:05:22,713990,All Other Amusement and Recreation Industries ,Breweries,,1180 Peachtree,,ST,NE,Suite 3330,Atlanta,GA,30309,1180 Peachtree nan ST Atlanta GA 30309,"1180 Peachtree St NE, Atlanta, Georgia, 30309",-84.3842814,33.7870368,FALSE,6,E
GBL-0521-03414,Lucky OPCO LLC,,"Admin, Support, Waste Mgt & Remediation Svc",,,2025-02-14 09:12:03,448140,Family Clothing Stores ,Childrens and Infants Clothing Stores,,3500 Peachtree Rd Space 2020B,,,,,Atlanta,GA,30326,3500 Peachtree Rd Space 2020B nan nan Atlanta GA 30326,"3500 Peachtree Rd NE, Suite 2020B, Atlanta, Georgia, 30326",-84.3624323,33.85276538,FALSE,7,B
GBL-0521-03414,Lucky OPCO LLC,,"Admin, Support, Waste Mgt & Remediation Svc",,,2025-02-14 09:12:03,448140,Family Clothing Stores ,Book Stores ,,3500 Peachtree Rd Space 2020B,,,,,Atlanta,GA,30326,3500 Peachtree Rd Space 2020B nan nan Atlanta GA 30326,"3500 Peachtree Rd NE, Suite 2020B, Atlanta, Georgia, 30326",-84.3624323,33.85276538,FALSE,7,B
GBL-0523-20760,Ashley Brooke Salon & Spa,Bare Salon & Spa,"Admin, Support, Waste Mgt & Remediation Svc",,,2025-02-11 22:05:34,812112,Beauty Salons ,Recreational Goods Rental ,,595,WIMBLEDON,Road,NE,,Atlanta,GA,30324,595 WIMBLEDON Road Atlanta GA 30324,"595 Wimbledon Rd NE, Atlanta, Georgia, 30324",-84.3675891,33.80624518,FALSE,6,F
LGB-166790-2020,"ATLANTA BRIDAL COLLECTION,LLC",,"Admin, Support, Waste Mgt & Remediation Svc",,,2025-02-15 18:45:51,452319,All Other General Merchandise Stores ,Bowling Centers,,442,E PACES FERRY,RD,NE,,ATLANTA,GA,30305,442 E PACES FERRY RD ATLANTA GA 30305,"442 E Paces Ferry Rd NE, Atlanta, Georgia, 30305",-84.37339549,33.83851568,FALSE,District 7,B
LGB-175675-2020,CLEAN START CLEANSING LLC,,"Admin, Support, Waste Mgt & Remediation Svc",,,2025-02-14 09:06:23,446191,Food (Health) Supplement Stores ,Jewelry Stores ,,631 Miami ,,CIR,NE,STE 32B,ATLANTA,GA,30324,631 Miami  nan CIR ATLANTA GA 30324,"631 Miami Cir NE, Atlanta, Georgia, 30324",-84.36532003,33.82827899,FALSE,District 7,B
GBL-0722-15161,Construction Resources,,"Admin, Support, Waste Mgt & Remediation Svc",,,2025-03-27 15:33:57,453998,All Other Miscellaneous Store Retailers (except Tobacco Stores) ,Electronics Stores ,,3098 Roswel ,,RD,NW,,Atlanta,GA,30305,3098 Roswel  nan RD Atlanta GA 30305,"3098 Roswell Rd NW, Atlanta, Georgia, 30305",-84.37981804,33.84004102,FALSE,District 8,B
GBL-0124-26346,PV Fitness Holdings,Pvolve,"Arts, Entertainment & Recreation",,,2025-01-23 11:04:05,713940,Fitness and Recreational Sports Centers ,Other Clothing Stores ,,1100 Howell Mill Rd Unit A02,,,,,Atlanta,GA,30318,1100 Howell Mill Rd Unit A02 nan nan Atlanta GA 30318,"1100 Howell Mill Rd NW, Atlanta, Georgia, 30318",-84.41197052,33.7854866,FALSE,3,E
GBL-0124-26635,"The Escape Game Atlanta 2, LLC",,"Arts, Entertainment & Recreation",,,2025-02-19 09:45:40,713990,All Other Amusement and Recreation Industries ,Sporting Goods Stores ,,1115,HOWELL MILL,Road,NW,,Atlanta,GA,30318,1115 HOWELL MILL Road Atlanta GA 30318,"1115 Howell Mill Rd NW, Atlanta, Georgia, 30318",-84.41094466,33.7852245,FALSE,3,E
GBL-0221-01427,"Yonder O4W, LLC",Yonder Yoga,"Arts, Entertainment & Recreation",,,2025-02-13 09:12:33,713940,Fitness and Recreational Sports Centers ,Shoe Stores ,,655,Highland,AVE,NE,2,Atlanta,GA,30312,655 Highland AVE Atlanta GA 30312,"655 Highland Ave NE, Atlanta, Georgia, 30312",-84.36590484,33.76099028,FALSE,2,M
GBL-0222-10205,Pittsburgh Community Market,,"Arts, Entertainment & Recreation",,,2025-02-15 19:07:22,445110,Supermarkets and Other Grocery (except Convenience) Stores ,"Hobby, Toy, and Game Stores ",,352 University Avenue Sw Atlanta Ga 30310,,,,,,,,352 University Avenue Sw Atlanta Ga 30310 nan nan nan nan nan,"352 University Ave SW, Atlanta, Georgia, 30310",-84.39977158,33.72118714,TRUE,12,V
GBL-0222-10541,Atlanta Proper,,"Arts, Entertainment & Recreation",,,2025-02-15 18:44:12,532310,General Rental Centers,Department Stores ,,918 WOODLAND AVE SE,,,,,,,,918 WOODLAND AVE SE nan nan nan nan nan,"Nan, Luang Prabang",101.9712516,19.5242098,FALSE,,
GBL-0223-19437,"Tara Theatre, LLC",Tara Theatre,"Arts, Entertainment & Recreation",,,2025-02-14 09:06:04,713990,All Other Amusement and Recreation Industries ,Other Grocery and Related Products Merchant Wholesalers ,NE,2345 Cheshire Bridge Rd.,,,,,Atlanta,GA,30324,2345 Cheshire Bridge Rd. nan nan Atlanta GA 30324,"2345 Cheshire Bridge Rd NE, Atlanta, Georgia, 30324",-84.35036923,33.81918064,FALSE,6,F
GBL-0224-27925,Cakes & Rosé Events,,"Arts, Entertainment & Recreation",,,2025-02-16 18:45:22,713990,All Other Amusement and Recreation Industries ,0,,2047 Old Georgian Terrace NW,,,,,Atlanta,GA,30318,2047 Old Georgian Terrace NW nan nan Atlanta GA 30318,"2047 Old Georgian Ter NW, Atlanta, Georgia, 30318",-84.47942648,33.81089383,FALSE,9,D
GBL-0225-36473,TICKET ALTERNATIVE LLC,,"Arts, Entertainment & Recreation",,,2025-02-08 16:08:08,713990,All Other Amusement and Recreation Industries ,,,1206,SPRING,ST,NW,,ATLANTA,GA,30309,1206 SPRING ST ATLANTA GA 30309,"1206 Spring St NW, Atlanta, Georgia, 30309",-84.38955136,33.78759034,FALSE,2,E
GBL-0322-10806,Cloud to Ground LLC,,"Arts, Entertainment & Recreation",,,2025-02-26 23:08:03,713990,All Other Amusement and Recreation Industries ,,,1429,FAIRMONT,AVE,NW,,Atlanta,GA,,1429 FAIRMONT AVE Atlanta GA nan,"1429 Fairmont Ave NW, Atlanta, Georgia, 30318",-84.42149881,33.79352812,FALSE,9,D
GBL-0322-10939,BIOY LLC,Bring It Om Yoga,"Arts, Entertainment & Recreation",,,2025-02-11 02:54:59,713940,Fitness and Recreational Sports Centers ,,,1186 N Highland Ave NE,,AVE,,D-E,Atlanta,GA,30306,1186 N Highland Ave NE nan AVE Atlanta GA 30306,"1186 N Highland Ave NE, Atlanta, Georgia, 30306",-84.35539626,33.78719156,FALSE,6,F
GBL-0322-10981,SOLIDCORE ATLANTA INC,,"Arts, Entertainment & Recreation",,,2025-02-27 23:05:20,713940,Fitness and Recreational Sports Centers ,,,975 Memorial Dr SE,,,,814,Atlanta,GA,30316,975 Memorial Dr SE nan nan Atlanta GA 30316,"975 Memorial Dr SE, Atlanta, Georgia, 30316",-84.35637604,33.74556301,FALSE,5,N
GBL-0322-11275,"Gym Box Enterprises, LLC",Fit360 Total Training,"Arts, Entertainment & Recreation",,,2025-02-14 09:10:07,713940,Fitness and Recreational Sports Centers ,,,700 Miami Circle ,,,NE,,Atlanta,GA,30324,700 Miami Circle  nan nan Atlanta GA 30324,"700 Miami Cir NE, Atlanta, Georgia, 30324",-84.36410449,33.83024802,FALSE,7,B
GBL-0322-11521,G-Code,,"Arts, Entertainment & Recreation",,,2025-02-06 14:39:57,713120,Amusement Arcades,,,90,BELMONTE,CIR,SW,,Atlanta,GA,30311,90 BELMONTE CIR Atlanta GA 30311,"90 Belmonte Cir SW, Atlanta, Georgia, 30311",-84.44417396,33.72590364,TRUE,4,S
GBL-0322-11586,BLUE SKY THREADS,,"Arts, Entertainment & Recreation",,,2025-02-03 17:04:26,713940,Fitness and Recreational Sports Centers ,,,1201 Peachtree ,,ST,NE,Unit 110,Atlanta,GA,30361,1201 Peachtree  nan ST Atlanta GA 30361,"1201 Peachtree St NE, Atlanta, Georgia, 30361",-84.38287274,33.78755543,FALSE,6,E
GBL-0324-28616,Buckhaven Legacy LLC,Alloy Personal Training Buckhead,"Arts, Entertainment & Recreation",,,2025-01-27 12:09:30,713940,Fitness and Recreational Sports Centers ,,,3330,Piedmont,RD,,24,ATLANTA,GA,30305,3330 Piedmont RD ATLANTA GA 30305,"3330 Piedmont Rd NE, Atlanta, Georgia, 30305",-84.37397217,33.84615025,FALSE,7,B
GBL-0422-11849,paultheATLartist LLC,paultheATLartist,"Arts, Entertainment & Recreation",,,2025-01-21 11:05:22,453920,Art Dealers ,,,3904,RANDALL RIDGE,RD,NW,,Atlanta,GA,,3904 RANDALL RIDGE RD Atlanta GA nan,"3904 Randall Ridge Rd NW, Atlanta, Georgia, 30327",-84.42840425,33.86190907,FALSE,8,A
GBL-0423-20679,Andrew Blooms Art,Blooms Emporium,"Arts, Entertainment & Recreation",,,2025-02-11 09:05:11,453920,Art Dealers ,,,161 Mangum St. Unit 206,161 Mangum St. Unit 206,,,,Atlanta,GA,30313,161 Mangum St. Unit 206 161 Mangum St. Unit 206 nan Atlanta GA 30313,"161 Mangum St, Atlanta, Georgia, 30313",-84.39915128,33.75017422,FALSE,4,M
GBL-0521-02874,BODY BY KARIIM FITNESS,,"Arts, Entertainment & Recreation",,,2025-01-05 17:05:28,713940,Fitness and Recreational Sports Centers ,,,1331 Marietta ,,BLVD,NW,Suite A,Atlanta,GA,30318,1331 Marietta  nan BLVD Atlanta GA 30318,"1331 Marietta Blvd NW, Atlanta, Georgia, 30318",-84.42927747,33.79119271,FALSE,9,D
GBL-0522-13294,"Ascend Aerials, LLC",Next Level Innovations,"Arts, Entertainment & Recreation",,,2025-02-11 09:08:50,713990,All Other Amusement and Recreation Industries ,,,1130 Fayetteville,,RD,SE,,Atlanta,GA,30316,1130 Fayetteville nan RD Atlanta GA 30316,"1130 Fayetteville Rd SE, Atlanta, Georgia, 30316",-84.32712135,33.72325919,FALSE,5,W
GBL-0523-20813,Womanish Inc,,"Arts, Entertainment & Recreation",,,2025-02-15 18:56:26,713990,All Other Amusement and Recreation Industries ,,,730 Peachtree ,,ST,NE,STE 570,Atlanta,GA,30308,730 Peachtree  nan ST Atlanta GA 30308,"730 Peachtree St NE, Atlanta, Georgia, 30308",-84.38535261,33.77449713,FALSE,2,E
GBL-0523-20857,Forsyth Images,,"Arts, Entertainment & Recreation",,,2025-01-14 09:35:34,713990,All Other Amusement and Recreation Industries ,,,101 Roanoke ,,AVE,NE,,Atlanta,GA,30305,101 Roanoke  nan AVE Atlanta GA 30305,"101 Roanoke Ave NE, Atlanta, Georgia, 30305",-84.38310366,33.81884465,FALSE,7,B
GBL-0622-14390,"Style Points, LLC",,"Arts, Entertainment & Recreation",,,2025-01-18 17:12:37,713990,All Other Amusement and Recreation Industries ,,,1268 Wright LN SE,,,,,Atlanta,GA,30316,1268 Wright LN SE nan nan Atlanta GA 30316,"1268 Wright Ln SE, Atlanta, Georgia, 30316",-84.34518251,33.73937574,FALSE,5,W
GBL-0622-14431,"LTF Club Operations Company, Inc.",Life Time,"Arts, Entertainment & Recreation",,,2025-02-25 23:06:46,713940,Fitness and Recreational Sports Centers ,,,3500,PEACHTREE,Road,NE,,Atlanta,GA,,3500 PEACHTREE Road Atlanta GA nan,"3500 Peachtree Rd NE, Atlanta, Georgia, 30326",-84.3624323,33.85276538,FALSE,7,B
GBL-0624-31157,Kanvas Event Space LLC,Kids Avenue,"Arts, Entertainment & Recreation",,,2025-01-21 10:49:46,713990,All Other Amusement and Recreation Industries ,,,3199 Maple,,DR,NE,R,Atlanta,GA,30305,3199 Maple nan DR Atlanta GA 30305,"3199 Maple Dr NE, Atlanta, Georgia, 30305",-84.37200602,33.84256401,FALSE,7,B
GBL-0721-04949,"The Bijou Pictures, LLC",,"Arts, Entertainment & Recreation",,,2025-02-11 11:39:43,713990,All Other Amusement and Recreation Industries ,,,"1201 W. Peachtree Street, NW",Suite 2300,,,,Atlanta,GA,30309,"1201 W. Peachtree Street, NW Suite 2300 nan Atlanta GA 30309","1201 W Peachtree St NW, Suite 2300, Atlanta, Georgia, 30309",-84.38750492,33.78721491,FALSE,6,E
GBL-0722-15042,Azizi Atlanta LLC,Azizi Lounge,"Arts, Entertainment & Recreation",,,2025-02-06 13:24:33,713990,All Other Amusement and Recreation Industries ,,,25 Bennett St NW,,,,B2,atlanta,GA,30309,25 Bennett St NW nan nan atlanta GA 30309,"25 Bennett St NW, Atlanta, Georgia, 30309",-84.39339044,33.81229235,FALSE,8,C
GBL-0723-22133,Solidcore Atlanta LLC,,"Arts, Entertainment & Recreation",,,2025-02-27 23:07:26,713940,Fitness and Recreational Sports Centers ,,,"65 Irby Ave NW Suite 104 Atlanta, GA 30305",,,,,,,,"65 Irby Ave NW Suite 104 Atlanta, GA 30305 nan nan nan nan nan","65 Irby Ave NW, Atlanta, Georgia, 30305",-84.38100143,33.8412982,FALSE,8,B
GBL-0821-05403,"Wai's Kung Fu, LLC",,"Arts, Entertainment & Recreation",,,2025-02-14 11:07:33,713940,Fitness and Recreational Sports Centers ,,,1385 English,,ST,NW,Building A,Atlanta,GA,30318,1385 English nan ST Atlanta GA 30318,"1385 English St NW, Atlanta, Georgia, 30318",-84.42011069,33.79236593,FALSE,9,D
GBL-0821-06112,Hydra+,,"Arts, Entertainment & Recreation",,,2025-01-24 16:17:04,713940,Fitness and Recreational Sports Centers ,,,675 N. Highlands Ave NE,Suite 4000,,,,Atlanta,GA,30306,675 N. Highlands Ave NE Suite 4000 nan Atlanta GA 30306,"675 N Highland Ave NE, Apartment 4000, Atlanta, Georgia, 30306",-84.35226304,33.77285801,FALSE,2,N
GBL-0821-06225,BTB ATLANTA 1 LLC,,"Arts, Entertainment & Recreation",,,2025-01-10 13:33:56,713990,All Other Amusement and Recreation Industries ,,,1483 Chattahoochee Avenue,Suites 110 & 120,,,,Altanta,GA,30318,1483 Chattahoochee Avenue Suites 110 & 120 nan Altanta GA 30318,"1483 Chattahoochee Ave NW, Atlanta, Georgia, 30318",-84.43562626,33.8089222,FALSE,9,D
GBL-0821-06225,BTB ATLANTA 1 LLC,,"Arts, Entertainment & Recreation",,,2025-01-10 13:33:56,713990,All Other Amusement and Recreation Industries ,,,1483 Chattahoochee Avenue,Suites 110 & 120,,,,Altanta,GA,30318,1483 Chattahoochee Avenue Suites 110 & 120 nan Altanta GA 30318,"1483 Chattahoochee Ave NW, Atlanta, Georgia, 30318",-84.43562626,33.8089222,FALSE,9,D
GBL-0822-15269,African Diaspora Art Museum of Atlanta,,"Arts, Entertainment & Recreation",,,2025-02-14 20:59:27,712110,Museums ,,,986,OAKLAND,Drive,SW,,Atlanta,GA,,986 OAKLAND Drive Atlanta GA nan,"986 Oakland Dr SW, Atlanta, Georgia, 30310",-84.42694236,33.72813863,TRUE,4,S
GBL-0824-32384,CORE Ormewood,CORE Ormewood,"Arts, Entertainment & Recreation",,,2025-02-16 18:42:36,713940,Fitness and Recreational Sports Centers ,,,749,MORELAND,Avenue,SE,,Atlanta,GA,,749 MORELAND Avenue Atlanta GA nan,"749 Moreland Ave SE, Atlanta, Georgia, 30316",-84.34967797,33.73357299,FALSE,1,W
GBL-0921-06616,Bodies By Browning LLC,Village Fitness E.A.V,"Arts, Entertainment & Recreation",,,2025-01-09 13:06:19,713940,Fitness and Recreational Sports Centers ,,,1231,GLENWOOD,AVE,SE,,Atlanta,GA,,1231 GLENWOOD AVE Atlanta GA nan,"1231 Glenwood Ave SE, Atlanta, Georgia, 30316",-84.34728092,33.73982979,FALSE,5,W
GBL-0922-16007,"Atlanta Pickleball Center, LLC",,"Arts, Entertainment & Recreation",,,2025-02-15 18:51:45,713940,Fitness and Recreational Sports Centers ,,,1359,ELLSWORTH INDUSTRIAL,Drive,NW,,Atlanta,GA,,1359 ELLSWORTH INDUSTRIAL Drive Atlanta GA nan,"1359 Ellsworth Industrial Blvd NW, Atlanta, Georgia, 30318",-84.42595857,33.79191523,FALSE,9,D
GBL-0923-23189,Sweat EXT ATL LLC,Sweat EXT,"Arts, Entertainment & Recreation",,,2025-02-18 23:09:15,713940,Fitness and Recreational Sports Centers ,,NE,650 North,,AVE,,Suite S102C,Atlanta,GA,30308,650 North nan AVE Atlanta GA 30308,"650 North Ave NE, Atlanta, Georgia, 30308",-84.36726497,33.77154398,FALSE,2,M
GBL-0924-33107,"Atlanta Humanities Society, Inc.",Atlanta Humanities,"Arts, Entertainment & Recreation",,,2025-02-16 18:42:56,712110,Museums ,,,1268,WESTRIDGE,Road,SW,,Atlanta,GA,30311,1268 WESTRIDGE Road Atlanta GA 30311,"1268 Westridge Rd SW, Atlanta, Georgia, 30311",-84.44659566,33.72068603,TRUE,4,S
GBL-0924-33165,CRG OpCo,Central Rock Gym,"Arts, Entertainment & Recreation",,,2025-01-23 17:38:26,713990,All Other Amusement and Recreation Industries ,,,715,PEACHTREE,Street,NE,,Atlanta,GA,,715 PEACHTREE Street Atlanta GA nan,"715 Peachtree St NE, Atlanta, Georgia, 30308",-84.38421301,33.77402301,FALSE,2,E
GBL-0924-33449,"FRESHTIX, LLC",,"Arts, Entertainment & Recreation",,,2025-02-08 16:08:06,713990,All Other Amusement and Recreation Industries ,,,1206,SPRING,ST,NW,,ATLANTA,GA,30309,1206 SPRING ST ATLANTA GA 30309,"1206 Spring St NW, Atlanta, Georgia, 30309",-84.38955136,33.78759034,FALSE,2,E
GBL-1023-23588,"MFG GA Emory, LLC",,"Arts, Entertainment & Recreation",,,2025-02-12 11:10:32,713940,Fitness and Recreational Sports Centers ,,,1568 Avenue Place,,,,D1-180,Atlanta,GA,30329,1568 Avenue Place nan nan Atlanta GA 30329,"1568 Avenue Pl, Atlanta, Georgia, 30329",-84.3265378,33.80092398,FALSE,6,F
GBL-1024-33752,Conjure Yoga & Ritual,,"Arts, Entertainment & Recreation",,,2025-02-15 18:48:50,713940,Fitness and Recreational Sports Centers ,,,1530 Dekalb Ave NE,,,,Suite C,Atlanta,GA,30307,1530 Dekalb Ave NE nan nan Atlanta GA 30307,"1530 Dekalb Ave NE, Atlanta, Georgia, 30307",-84.33755623,33.76288782,FALSE,2,N
GBL-1024-34016,S.A.F.E MANAGEMENT OF GEORGIA,,"Arts, Entertainment & Recreation",,,2025-02-04 17:04:27,713990,All Other Amusement and Recreation Industries ,,,1,AMB,DR,NW,,ATLANTA,GA,30313,1 AMB DR ATLANTA GA 30313,"1 Amb Dr NW, Atlanta, Georgia, 30313",-84.40070147,33.75549825,FALSE,3,M
GBL-1120-00118,"Haven Yoga Atl, LLC",,"Arts, Entertainment & Recreation",,,2025-02-01 15:36:11,713940,Fitness and Recreational Sports Centers ,,,2011,BOLTON,RD,NW,,Atlanta,GA,,2011 BOLTON RD Atlanta GA nan,"2011 Bolton Rd NW, Atlanta, Georgia, 30318",-84.47690445,33.81046992,FALSE,9,D
GBL-1121-08132,Paniq Duo LLC,,"Arts, Entertainment & Recreation",,,2025-01-23 13:04:05,713110,Amusement and Theme Parks ,,NW,670 10th street,,,,,Atlanta,GA,30318,670 10th street nan nan Atlanta GA 30318,"670 10th St NW, Atlanta, Georgia, 30318",-84.40932678,33.78132201,FALSE,3,E
GBL-1123-24803,Bury The Hatchet LLC,Bury The Hatchet Atlanta,"Arts, Entertainment & Recreation",,,2025-03-04 23:06:13,713120,Amusement Arcades,,,325 Elizabeth,,ST,NE,,Atlanta,GA,30307,325 Elizabeth nan ST Atlanta GA 30307,"325 Elizabeth St NE, Atlanta, Georgia, 30307",-84.35823866,33.76341496,FALSE,2,N
GBL-1221-08777,SH Capital GAT 8 LLC,Anytime Fitness,"Arts, Entertainment & Recreation",,,2025-03-04 23:04:48,713940,Fitness and Recreational Sports Centers ,,,550,PHARR,RD,NE,,Atlanta,GA,,550 PHARR RD Atlanta GA nan,"550 Pharr Rd NE, Atlanta, Georgia, 30305",-84.37004047,33.83726963,FALSE,7,B
GBL-1221-08777,SH Capital GAT 8 LLC,Anytime Fitness,"Arts, Entertainment & Recreation",,,2025-03-04 23:04:48,713940,Fitness and Recreational Sports Centers ,,,550,PHARR,RD,NE,,Atlanta,GA,,550 PHARR RD Atlanta GA nan,"550 Pharr Rd NE, Atlanta, Georgia, 30305",-84.37004047,33.83726963,FALSE,7,B
GBL-1224-34542,Brick House Strength & Conditioning LLC,S Corp,"Arts, Entertainment & Recreation",,,2025-03-03 10:45:39,713940,Fitness and Recreational Sports Centers ,,,2139,LIDDELL,Drive,NE,,Atlanta,GA,,2139 LIDDELL Drive Atlanta GA nan,"2139 Liddell Dr NE, Atlanta, Georgia, 30324",-84.3631518,33.81193629,FALSE,6,F
LGB-005625-2020,BERMAN GALLERY INC,,"Arts, Entertainment & Recreation",,,2025-02-12 17:10:05,713990,All Other Amusement and Recreation Industries ,,,572,CLIFTON,RD,NE,,ATLANTA,GA,30307,572 CLIFTON RD ATLANTA GA 30307,"572 Clifton Rd NE, Atlanta, Georgia, 30307",-84.33337023,33.76979396,FALSE,2,N
LGB-009825-2020,MRS CHEROKEE,,"Arts, Entertainment & Recreation",,,2025-01-27 10:05:24,713990,All Other Amusement and Recreation Industries ,,,516,CLEVELAND,AVE,SW,,ATLANTA,GA,30315,516 CLEVELAND AVE ATLANTA GA 30315,"516 Cleveland Ave SW, Atlanta, Georgia, 30315",-84.40562885,33.68095773,TRUE,12,X
LGB-011083-2020,REINIKE GALLERY INC,,"Arts, Entertainment & Recreation",,,2025-02-13 09:14:23,453920,Art Dealers ,,,761,MIAMI,CIR,NE,STE C,ATLANTA,GA,30324,761 MIAMI CIR ATLANTA GA 30324,"761 Miami Cir NE, Atlanta, Georgia, 30324",-84.36200348,33.83051633,FALSE,7,B
LGB-011275-2020,TEW GALLERIES INC,,"Arts, Entertainment & Recreation",,,2025-02-07 10:34:16,453920,Art Dealers ,,,425,PEACHTREE HILLS,AVE,NE,24,ATLANTA,GA,30305,425 PEACHTREE HILLS AVE ATLANTA GA 30305,"425 Peachtree Hills Ave NE, Atlanta, Georgia, 30305",-84.37318628,33.81841831,FALSE,7,B
LGB-011275-2020,TEW GALLERIES INC,,"Arts, Entertainment & Recreation",,,2025-02-07 10:34:16,453920,Art Dealers ,,,425,PEACHTREE HILLS,AVE,NE,24,ATLANTA,GA,30305,425 PEACHTREE HILLS AVE ATLANTA GA 30305,"425 Peachtree Hills Ave NE, Atlanta, Georgia, 30305",-84.37318628,33.81841831,FALSE,7,B
LGB-012709-2020,BILL LOWE GALLERY,,"Arts, Entertainment & Recreation",,,2025-01-03 06:10:13,713990,All Other Amusement and Recreation Industries ,,,764,MIAMI,CIR,NE,STE 210,ATLANTA,GA,30324,764 MIAMI CIR ATLANTA GA 30324,"764 Miami Cir NE, Atlanta, Georgia, 30324",-84.36224245,33.8316926,FALSE,7,B
LGB-054621-2020,ADVANCED ORTHOPAEDIC SERVICES,,"Arts, Entertainment & Recreation",,,2025-01-17 12:44:08,713940,Fitness and Recreational Sports Centers ,,,3581,OLD IVY,LN,NE,,ATLANTA,GA,30342,3581 OLD IVY LN ATLANTA GA 30342,"3581 Old Ivy Ln NE, Atlanta, Georgia, 30342",-84.37441792,33.85502384,FALSE,7,B
LGB-058708-2019,"1400 NORTHSIDE, INC",SWINGING RICHARD'S,"Arts, Entertainment & Recreation",,,2025-02-24 23:08:26,713990,All Other Amusement and Recreation Industries ,,,1400,NORTHSIDE,DR,NW,,ATLANTA,GA,30318,1400 NORTHSIDE DR ATLANTA GA 30318,"1400 Northside Dr NW, Atlanta, Georgia, 30318",-84.40814091,33.79290727,FALSE,9,D
LGB-058708-2019,"1400 NORTHSIDE, INC",SWINGING RICHARD'S,"Arts, Entertainment & Recreation",,,2025-02-24 23:08:26,713990,All Other Amusement and Recreation Industries ,,,1400,NORTHSIDE,DR,NW,,ATLANTA,GA,30318,1400 NORTHSIDE DR ATLANTA GA 30318,"1400 Northside Dr NW, Atlanta, Georgia, 30318",-84.40814091,33.79290727,FALSE,9,D
LGB-064793-2020,MRS ROBERTS PSYCHIC PALM READE,,"Arts, Entertainment & Recreation",,,2025-01-28 17:03:39,713990,All Other Amusement and Recreation Industries ,,,3397,MARTIN L KING JR,DR,SW,,ATLANTA,GA,30311,3397 MARTIN L KING JR DR ATLANTA GA 30311,"3397 Martin Luther King Dr, Atlanta, Georgia, 30331",-84.49897266,33.75511091,TRUE,10,H
LGB-081603-2020,DAVID JOHNSON GOLF DESIGN LLC,,"Arts, Entertainment & Recreation",,,2025-01-09 09:04:50,713910,Golf Courses and Country Clubs,,,694,COOLEDGE,AVE,NE,,ATLANTA,GA,30306,694 COOLEDGE AVE ATLANTA GA 30306,"694 Cooledge Ave NE, Atlanta, Georgia, 30306",-84.36477957,33.78279891,FALSE,6,F
LGB-093791-2020,LA FITNESS,,"Arts, Entertainment & Recreation",,,2025-02-07 08:51:43,713940,Fitness and Recreational Sports Centers ,,,1544,PIEDMONT,AVE,NE,,ATLANTA,GA,30324,1544 PIEDMONT AVE ATLANTA GA 30324,"1544 Piedmont Ave NE, Atlanta, Georgia, 30324",-84.37126976,33.7981895,FALSE,6,F
LGB-093791-2020,LA FITNESS,,"Arts, Entertainment & Recreation",,,2025-02-07 08:51:43,713940,Fitness and Recreational Sports Centers ,,,1544,PIEDMONT,AVE,NE,,ATLANTA,GA,30324,1544 PIEDMONT AVE ATLANTA GA 30324,"1544 Piedmont Ave NE, Atlanta, Georgia, 30324",-84.37126976,33.7981895,FALSE,6,F
LGB-099485-2019,SUGAR DADDY'S I & II,,"Arts, Entertainment & Recreation",,,2025-02-11 15:06:31,713110,Amusement and Theme Parks ,,,1936,PIEDMONT,CIR,NE,,ATLANTA,GA,30324,1936 PIEDMONT CIR ATLANTA GA 30324,"1936 Piedmont Cir NE, Atlanta, Georgia, 30324",-84.36825085,33.8096764,FALSE,6,F
LGB-102096-2020,UBBC LLC,,"Arts, Entertainment & Recreation",,,2025-01-24 13:04:40,713990,All Other Amusement and Recreation Industries ,,,1830,PIEDMONT,RD,NE,STE-F,ATLANTA,GA,30324,1830 PIEDMONT RD ATLANTA GA 30324,"1830 Piedmont Ave NE, Atlanta, Georgia, 30324",-84.36807944,33.80574776,FALSE,6,F
LGB-105245-2020,CELESTIAL SPA,,"Arts, Entertainment & Recreation",,,2025-02-08 16:04:18,713940,Fitness and Recreational Sports Centers ,,,2930,CASCADE,RD,SW,,ATLANTA,GA,30311,2930 CASCADE RD ATLANTA GA 30311,"2930 Cascade Rd SW, Atlanta, Georgia, 30311",-84.48354619,33.71974461,FALSE,11,I
LGB-105916-2020,ARENA SPORTS MARKETING LLC,,"Arts, Entertainment & Recreation",,,2025-02-10 13:35:18,713990,All Other Amusement and Recreation Industries ,,,101,MARIETTA,ST,NW,STE 1900,ATLANTA,GA,30303,101 MARIETTA ST ATLANTA GA 30303,101 Marietta Street,-84.392095,33.756811,FALSE,2,M
LGB-105916-2020,ARENA SPORTS MARKETING LLC,,"Arts, Entertainment & Recreation",,,2025-02-10 13:35:18,713990,All Other Amusement and Recreation Industries ,,,101,MARIETTA,ST,NW,STE 1900,ATLANTA,GA,30303,101 MARIETTA ST ATLANTA GA 30303,101 Marietta Street,-84.392095,33.756811,FALSE,2,M
LGB-105917-2020,"ATLANTA HAWKS MANAGEMENT, LLC",,"Arts, Entertainment & Recreation",,,2025-02-10 13:38:35,713990,All Other Amusement and Recreation Industries ,,,101,MARIETTA,ST,NW,STE-1900,ATLANTA,GA,30303,101 MARIETTA ST ATLANTA GA 30303,101 Marietta Street,-84.392095,33.756811,FALSE,2,M
LGB-105917-2020,"ATLANTA HAWKS MANAGEMENT, LLC",,"Arts, Entertainment & Recreation",,,2025-02-10 13:38:35,713990,All Other Amusement and Recreation Industries ,,,101,MARIETTA,ST,NW,STE-1900,ATLANTA,GA,30303,101 MARIETTA ST ATLANTA GA 30303,101 Marietta Street,-84.392095,33.756811,FALSE,2,M
LGB-117040-2020,"INVESTMENT DYNAMICS, INC.",THE BLUE FLAME LOUNGE,"Arts, Entertainment & Recreation",,,2025-02-11 15:09:57,713990,All Other Amusement and Recreation Industries ,,,1097,HARWELL,RD,NW,,ATLANTA,GA,30318,1097 HARWELL RD ATLANTA GA 30318,"1097 Harwell Rd NW, Atlanta, Georgia, 30318",-84.4910925,33.78521323,TRUE,9,I
LGB-119875-2020,BENCHMARK PHYSICAL THERAPY,,"Arts, Entertainment & Recreation",,,2025-02-10 13:36:59,713940,Fitness and Recreational Sports Centers ,,,800,PEACHTREE,ST,NE,STE-E275,ATLANTA,GA,30308,800 PEACHTREE ST ATLANTA GA 30308,"800 Peachtree St NE, Atlanta, Georgia, 30308",-84.38522948,33.776826,FALSE,2,E
LGB-125350-2020,WALL CRAWLER ROCK CLUB,,"Arts, Entertainment & Recreation",,,2025-01-30 13:04:35,713990,All Other Amusement and Recreation Industries ,,,1522,DEKALB,AVE,SE,,ATLANTA,GA,30307,1522 DEKALB AVE ATLANTA GA 30307,"1522 Dekalb Ave NE, Atlanta, Georgia, 30307",-84.33808287,33.76257254,FALSE,2,N
LGB-127738-2020,RPM,,"Arts, Entertainment & Recreation",,,2025-01-17 11:04:11,713940,Fitness and Recreational Sports Centers ,,,600,PEACHTREE,ST,NE,,ATLANTA,GA,30308,600 PEACHTREE ST ATLANTA GA 30308,"600 Peachtree St NE, Atlanta, Georgia, 30308",-84.38634503,33.77080599,FALSE,2,M
LGB-127738-2020,RPM,,"Arts, Entertainment & Recreation",,,2025-01-17 11:04:11,713940,Fitness and Recreational Sports Centers ,,,600,PEACHTREE,ST,NE,,ATLANTA,GA,30308,600 PEACHTREE ST ATLANTA GA 30308,"600 Peachtree St NE, Atlanta, Georgia, 30308",-84.38634503,33.77080599,FALSE,2,M
LGB-129181-2020,"LA FITNESS INTL., LLC",,"Arts, Entertainment & Recreation",,,2025-02-07 08:51:14,713940,Fitness and Recreational Sports Centers ,,,261,19TH,ST,NW,STE-1140,ATLANTA,GA,30363,261 19TH ST ATLANTA GA 30363,"261 19th St NW, Atlanta, Georgia, 30363",-84.39628722,33.79376772,FALSE,3,E
LGB-129181-2020,"LA FITNESS INTL., LLC",,"Arts, Entertainment & Recreation",,,2025-02-07 08:51:14,713940,Fitness and Recreational Sports Centers ,,,261,19TH,ST,NW,STE-1140,ATLANTA,GA,30363,261 19TH ST ATLANTA GA 30363,"261 19th St NW, Atlanta, Georgia, 30363",-84.39628722,33.79376772,FALSE,3,E
LGB-133047-2020,"BEAUTY LINE, INC",BUCKHEAD GRAND SPA,"Arts, Entertainment & Recreation",,,2025-02-15 19:00:02,713940,Fitness and Recreational Sports Centers ,,,3338,PEACHTREE,RD,NE,,ATLANTA,GA,30326,3338 PEACHTREE RD ATLANTA GA 30326,"3338 Peachtree Rd, Atlanta, Georgia, 30326",-84.36845353,33.84644397,FALSE,7,B
LGB-133047-2020,"BEAUTY LINE, INC",BUCKHEAD GRAND SPA,"Arts, Entertainment & Recreation",,,2025-02-15 19:00:02,713940,Fitness and Recreational Sports Centers ,,,3338,PEACHTREE,RD,NE,,ATLANTA,GA,30326,3338 PEACHTREE RD ATLANTA GA 30326,"3338 Peachtree Rd, Atlanta, Georgia, 30326",-84.36845353,33.84644397,FALSE,7,B
LGB-143613-2020,ONE-TOUCH SOCCER,,"Arts, Entertainment & Recreation",,,2025-01-17 11:04:08,713990,All Other Amusement and Recreation Industries ,,,3200,ATLANTA INDUSTRIAL,PKWY,NW,,ATLANTA,GA,30331,3200 ATLANTA INDUSTRIAL PKWY ATLANTA GA 30331,"3200 Atlanta Industrial Pkwy NW, Atlanta, Georgia, 30331",-84.49594956,33.79334447,TRUE,9,G
LGB-144496-2020,"BUNNELL EQUESTRIAN GRP, LLC.",,"Arts, Entertainment & Recreation",,,2025-02-03 15:19:57,713990,All Other Amusement and Recreation Industries ,,,1946,W WESLEY,RD,NW,,ATLANTA,GA,30327,1946 W WESLEY RD ATLANTA GA 30327,"1946 W Wesley Rd NW, Atlanta, Georgia, 30327",-84.45145691,33.83918422,FALSE,8,A
LGB-145220-2020,EXHALE ENTERPRISES XVIII INC,,"Arts, Entertainment & Recreation",,,2025-02-13 13:09:03,713940,Fitness and Recreational Sports Centers ,,,1065,PEACHTREE,ST,NE,STE 9A/9B,ATLANTA,GA,30309,1065 PEACHTREE ST ATLANTA GA 30309,"1065 Peachtree St NE, Atlanta, Georgia, 30309",-84.38282966,33.78364451,FALSE,2,E
LGB-156497-2020,FITNESS STARTUP LLC,CROSSFIT MIDTOWN,"Arts, Entertainment & Recreation",,,2025-02-06 14:39:15,713940,Fitness and Recreational Sports Centers ,,,1210,SPRING,ST,NW,,ATLANTA,GA,30309,1210 SPRING ST ATLANTA GA 30309,"1210 Spring St NW, Atlanta, Georgia, 30309",-84.38953778,33.78798311,FALSE,2,E
LGB-160860-2020,ATLANTA PARTNERS LLC SKYVIEW,,"Arts, Entertainment & Recreation",,,2025-01-31 15:35:09,713120,Amusement Arcades,,,168,LUCKIE,ST,NW,,ATLANTA,GA,30303,168 LUCKIE ST ATLANTA GA 30303,"168 Luckie St NW, Atlanta, Georgia, 30303",-84.39183065,33.75884288,FALSE,2,M
LGB-161886-2020,AIRCRAFT INFORMATION SVC. INC,,"Arts, Entertainment & Recreation",,,2025-02-13 15:06:52,713990,All Other Amusement and Recreation Industries ,,,1440,DUTCH VALLEY,PL,NE,STE 180,ATLANTA,GA,30324,1440 DUTCH VALLEY PL ATLANTA GA 30324,"1440 Dutch Valley Pl NE, Atlanta, Georgia, 30324",-84.3686251,33.7932697,FALSE,6,F
LGB-164238-2020,CORPORATE SPORTS UNLIMITED INC,,"Arts, Entertainment & Recreation",,,2025-01-17 11:05:02,713940,Fitness and Recreational Sports Centers ,,,191,PEACHTREE,ST,NE,,ATLANTA,GA,30303,191 PEACHTREE ST ATLANTA GA 30303,"191 Peachtree St NE, Atlanta, Georgia, 30303",-84.38668885,33.75878995,FALSE,2,M
LGB-168935-2020,"SWIMMERLAND, LLC",,"Arts, Entertainment & Recreation",,,2025-02-16 18:34:48,713990,All Other Amusement and Recreation Industries ,,,553,AMSTERDAM,AVE,NE,STE Z,ATLANTA,GA,30306,553 AMSTERDAM AVE ATLANTA GA 30306,"553 Amsterdam Ave NE, Atlanta, Georgia, 30306",-84.36882903,33.78790659,FALSE,District 6,F
LGB-171639-2020,ROBERT BRADLEY KOLOWICH JR,KOLOFIT PERSONAL TRAINING STUDIO,"Arts, Entertainment & Recreation",,,2025-01-21 15:35:59,713940,Fitness and Recreational Sports Centers ,,,1465,CHATTAHOOCHEE,AVE,NW,STE-800,ATLANTA,GA,30318,1465 CHATTAHOOCHEE AVE ATLANTA GA 30318,1465 Chattahoochee Avenue,-84.434247,33.807465,FALSE,District 9,D
LGB-172141-2020,CHARLIE YATES GOLF CLUB,,"Arts, Entertainment & Recreation",,,2025-02-12 15:11:44,713910,Golf Courses and Country Clubs,,,10,LAKESIDE VILLAGE,DR,SE,,ATLANTA,GA,30317,10 LAKESIDE VILLAGE DR ATLANTA GA 30317,"10 Lakeside Village Dr SE, Atlanta, Georgia, 30317",-84.31901513,33.74470081,FALSE,,O
LGB-175398-2020,OXSTRENGHT LLC,,"Arts, Entertainment & Recreation",,,2025-02-14 15:13:32,713940,Fitness and Recreational Sports Centers ,,,1040,GRANT,ST,SE,SUITE 300,ATLANTA,GA,30315,1040 GRANT ST ATLANTA GA 30315,"1040 Grant St SE, Atlanta, Georgia, 30315",-84.37607041,33.72589245,FALSE,District 1,W
LGB-182159-2020,PF MLK LLC,PLANET FITNESS,"Arts, Entertainment & Recreation",,,2025-03-05 23:07:46,713940,Fitness and Recreational Sports Centers ,,,3599,MARTIN L KING JR,DR,NW,A,ATLANTA,GA,30331,3599 MARTIN L KING JR DR ATLANTA GA 30331,"3599 Martin Luther King Jr Dr SW, Atlanta, Georgia, 30331",-84.50469499,33.76013399,TRUE,District 10,H
LGB-187034-2019,HYDRALIFE BH LLC,,"Arts, Entertainment & Recreation",,,2025-01-24 16:11:33,713940,Fitness and Recreational Sports Centers ,,,2221,PEACHTREE,RD,NE,STE-Q,ATLANTA,GA,30309,2221 PEACHTREE RD ATLANTA GA 30309,"2221 Peachtree Rd NE, Atlanta, Georgia, 30309",-84.39119186,33.81459675,FALSE,District 7,E
LGB-187034-2019,HYDRALIFE BH LLC,,"Arts, Entertainment & Recreation",,,2025-01-24 16:11:33,713940,Fitness and Recreational Sports Centers ,,,2221,PEACHTREE,RD,NE,STE-Q,ATLANTA,GA,30309,2221 PEACHTREE RD ATLANTA GA 30309,"2221 Peachtree Rd NE, Atlanta, Georgia, 30309",-84.39119186,33.81459675,FALSE,District 7,E
LGB-188707-2020,GREAT MUSIC GLOBAL,,"Arts, Entertainment & Recreation",,,2025-03-06 23:02:47,713990,All Other Amusement and Recreation Industries ,,,2113,DEFOORS FERRY,RD,NW,APT-F5,ATLANTA,GA,30318,2113 DEFOORS FERRY RD ATLANTA GA 30318,"2113 Defoors Ferry Rd NW, Atlanta, Georgia, 30318",-84.42461579,33.81321809,FALSE,District 9,C
LGB-188915-2019,TEAM NOVO NORDISK,,"Arts, Entertainment & Recreation",,,2025-02-12 13:05:31,713990,All Other Amusement and Recreation Industries ,,,2144,HILLS,AVE,NW,,ATLANTA,GA,30318,2144 HILLS AVE ATLANTA GA 30318,"2144 Hills Ave NW, Atlanta, Georgia, 30318",-84.43167503,33.81451272,FALSE,District 9,D
LGB-188915-2019,TEAM NOVO NORDISK,,"Arts, Entertainment & Recreation",,,2025-02-12 13:05:31,713990,All Other Amusement and Recreation Industries ,,,2144,HILLS,AVE,NW,,ATLANTA,GA,30318,2144 HILLS AVE ATLANTA GA 30318,"2144 Hills Ave NW, Atlanta, Georgia, 30318",-84.43167503,33.81451272,FALSE,District 9,D
LGB-189998-2020,YOUNDER BUCKHEAD LLC,,"Arts, Entertainment & Recreation",,,2025-02-13 09:11:48,713940,Fitness and Recreational Sports Centers ,,,3872,ROSWELL,RD,NE,STE-C4,ATLANTA,GA,30342,3872 ROSWELL RD ATLANTA GA 30342,"3872 Roswell Rd NE, Atlanta, Georgia, 30342",-84.38094096,33.86089498,FALSE,District 8,B
LGB-190010-2020,UTOPIA FOOT & SHOULDER,,"Arts, Entertainment & Recreation",,,2025-01-21 15:36:42,713940,Fitness and Recreational Sports Centers ,,,465,BOULEVARD,ST,SE,STE-106A,ATLANTA,GA,30312,465 BOULEVARD ST ATLANTA GA 30312,"465 Boulevard SE, Atlanta, Georgia, 30312",-84.36857355,33.74181215,FALSE,District 1,W
GBL-0122-09101,"Greenberg Georgia Film and TV Studio Holdings, LLC",Areu Studios,"Arts, Entertainment & Recreation",,,2025-07-09 09:25:44,713990,All Other Amusement and Recreation Industries ,,,3133,CONTINENTAL COLONY,PKWY,SW,,Atlanta,GA,,3133 CONTINENTAL COLONY PKWY Atlanta GA nan,"3133 Continental Colony Pkwy SW, Atlanta, Georgia, 30331",-84.49504029,33.68109729,TRUE,District 11,R
GBL-0123-18198,Pure Barre,,"Arts, Entertainment & Recreation",,,2025-05-07 23:02:29,713940,Fitness and Recreational Sports Centers ,,,1100 Howell Mill RD,,,,Suite A07,Atlanta,GA,30318,1100 Howell Mill RD nan nan Atlanta GA 30318,"1100 Howell Mill Rd NW, Atlanta, Georgia, 30318",-84.41197052,33.7854866,FALSE,District 3,E
GBL-0124-26412,"PRE.boutique, LLC",,"Arts, Entertainment & Recreation",,,2025-07-16 09:38:20,713990,All Other Amusement and Recreation Industries ,,,3545,KINGSBORO,Road,NE,,Atlanta,GA,30319,3545 KINGSBORO Road Atlanta GA 30319,"3545 Kingsboro Rd NE, Atlanta, Georgia, 30319",-84.35388603,33.85085795,FALSE,District 7,B
GBL-0223-19360,"Stretch Therapy ATL, LLC",,"Arts, Entertainment & Recreation",,,2025-04-30 21:02:24,713940,Fitness and Recreational Sports Centers ,,,2033 Metropolitan Pkwy,,,,E,Atlanta,GA,30315,2033 Metropolitan Pkwy nan nan Atlanta GA 30315,"2033 Metropolitan Pkwy SW, Atlanta, Georgia, 30315",-84.40943902,33.69908201,TRUE,District 12,X
GBL-0225-37319,Glostation Core USA Inc,Sandbox VR,"Arts, Entertainment & Recreation",,,2025-03-28 13:48:28,713990,All Other Amusement and Recreation Industries ,,,1115 Howell Mill,,RD,,P180,Atlanta,GA,3031,1115 Howell Mill nan RD Atlanta GA 3031,"1115 Howell Mill Rd NW, Atlanta, Georgia, 30318",-84.41094466,33.7852245,FALSE,District 3,E
GBL-0225-37612,Big Dill LLC,Dill Dinkers West End,"Arts, Entertainment & Recreation",,,2025-06-17 13:43:45,713940,Fitness and Recreational Sports Centers ,,,1200 White St SW #1000,,,,,Atlanta,GA,30310,1200 White St SW #1000 nan nan Atlanta GA 30310,"1200 White St SW, Atlanta, Georgia, 30310",-84.42882745,33.73590748,FALSE,District 4,T
GBL-0225-37639,"Atlanta Sport and Social Club, LLC","JAM Sports Atlanta, JAM Atlanta, ASSC","Arts, Entertainment & Recreation",,,2025-03-14 10:09:00,713990,All Other Amusement and Recreation Industries ,,,260 Howard,,ST,NE,,Atlanta,GA,30317,260 Howard nan ST Atlanta GA 30317,"260 Howard St NE, Atlanta, Georgia, 30317",-84.32347556,33.76014878,FALSE,District 5,O
GBL-0322-10704,Push Through Innovation Corporation,,"Arts, Entertainment & Recreation",,,2025-08-05 23:10:12,713990,All Other Amusement and Recreation Industries ,,,730 Peachtree Street NE,,,,570,Atlanta,GA,30303,730 Peachtree Street NE nan nan Atlanta GA 30303,"730 Peachtree St NE, Atlanta, Georgia, 30308",-84.38545395,33.77449261,FALSE,District 2,E
GBL-0322-10708,Sonny Boy Productions LLC,,"Arts, Entertainment & Recreation",,,2025-04-16 21:02:07,713990,All Other Amusement and Recreation Industries ,,,1350 Spring,,ST,,Suite 485,Atlanta,GA,30309,1350 Spring nan ST Atlanta GA 30309,"1350 Spring St NW, Atlanta, Georgia, 30309",-84.38971196,33.79156629,FALSE,District 2,E
GBL-0324-28685,Nouvelle nail bar,,"Arts, Entertainment & Recreation",,,2025-07-14 23:05:45,812113,Nail Salons ,,,1100 Howell Mill Rd,,,,a08,Atlanta,GA,30318,1100 Howell Mill Rd nan nan Atlanta GA 30318,"1100 Howell Mill Rd NW, Atlanta, Georgia, 30318",-84.41197052,33.7854866,FALSE,District 3,E
GBL-0425-39211,Business Doll Energy LLC,Pepper Boxing Midtown Atlanta,"Arts, Entertainment & Recreation",,,2025-04-30 10:30:00,713940,Fitness and Recreational Sports Centers ,,,1000,Spring,ST,NW,Suite E,Atlanta,GA,30309,1000 Spring ST Atlanta GA 30309,"1000 Spring St NW, Atlanta, Georgia, 30309",-84.38971858,33.78188926,FALSE,District 2,E
GBL-0425-39315,"Decoded Fitness, Inc.",Pvolve,"Arts, Entertainment & Recreation",,,2025-07-10 15:38:00,713940,Fitness and Recreational Sports Centers ,,,99 Krog,,ST,,Suite 4,Atlanta,GA,30307,99 Krog nan ST Atlanta GA 30307,"99 Krog St NE, Atlanta, Georgia, 30307",-84.36401899,33.75674699,FALSE,District 2,N
GBL-0521-03269,Gurl Mobb LLC,Gurl Mobb Museum,"Arts, Entertainment & Recreation",,,2025-07-22 23:06:49,712110,Museums ,,,"2115 Piedmont Road Northeast,",,,,1202,Atlanta,GA,30324,"2115 Piedmont Road Northeast, nan nan Atlanta GA 30324","2115 Piedmont Rd NE, Atlanta, Georgia, 30324",-84.3656258,33.81251728,FALSE,District 6,F
GBL-0523-20930,"FullSpec Cinema Equipment Rentals, LLC",,"Arts, Entertainment & Recreation",,,2025-04-03 21:03:51,713990,All Other Amusement and Recreation Industries ,,,1527,MAYFLOWER,Avenue,SW,,Atlanta,GA,30311,1527 MAYFLOWER Avenue Atlanta GA 30311,"1527 Mayflower Ave SW, Atlanta, Georgia, 30311",-84.43776465,33.72732931,TRUE,District 4,S
GBL-0524-30835,"Sati Yoga & Wellness, LLC",,"Arts, Entertainment & Recreation",,,2025-07-10 12:58:45,713940,Fitness and Recreational Sports Centers ,,,1996 Hosea L Williams,,DR,NE,,Atlanta,GA,30317,1996 Hosea L Williams nan DR Atlanta GA 30317,"1996 Hosea L Williams Dr NE, Atlanta, Georgia, 30317",-84.32236714,33.75136467,FALSE,District 5,O
GBL-0525-40186,Closette 323,Closette 323,"Arts, Entertainment & Recreation",,,,712110,Museums ,,,323,WALKER,Street,SW,,Atlanta,GA,30313,323 WALKER Street Atlanta GA 30313,"323 Walker St SW, Atlanta, Georgia, 30313",-84.40377168,33.74598047,FALSE,District 4,M
GBL-0525-40261,APACTV,"D. Jones Productions, LLC","Arts, Entertainment & Recreation",,,,713990,All Other Amusement and Recreation Industries ,,,,,AVE,SW,B,Atlanta,GA,30310,nan nan AVE Atlanta GA 30310,"30310, Atlanta, Georgia",-84.4217001,33.728257,TRUE,District 4,S
GBL-0624-31584,Enigma Artists Initiative,Enigma,"Arts, Entertainment & Recreation",,,2025-04-02 21:04:43,713990,All Other Amusement and Recreation Industries ,,,50 Alabama,,ST,,Ste 187/188,Atlanta,GA,30303,50 Alabama nan ST Atlanta GA 30303,"50 Alabama St SW, Atlanta, Georgia, 30303",-84.38980499,33.751881,FALSE,District 4,M
GBL-0625-40521,"MFG GA Summerhill, LLC",F45 Training Summerhill,"Arts, Entertainment & Recreation",,,,713940,Fitness and Recreational Sports Centers ,,,572,HANK AARON,Drive,SW,,Atlanta,GA,30312,572 HANK AARON Drive Atlanta GA 30312,"572 Hank Aaron Dr SE, Atlanta, Georgia, 30312",-84.38706218,33.73885104,FALSE,District 1,V
GBL-0625-40792,"EK Training, LLC",gain.,"Arts, Entertainment & Recreation",,,2025-06-23 10:17:00,713940,Fitness and Recreational Sports Centers ,,,872 Memorial,,DR,SE,1000,Atlanta,GA,30316,872 Memorial nan DR Atlanta GA 30316,"872 Memorial Dr SE, Atlanta, Georgia, 30316",-84.35873948,33.74719732,FALSE,District 5,N
GBL-0821-05934,JM South Buckhead,Orangetheory Fitness,"Arts, Entertainment & Recreation",,,2025-05-28 23:04:57,713940,Fitness and Recreational Sports Centers ,,,2255 Peachtree Rd,,RD,NE,STE J,Atlanta,GA,30339,2255 Peachtree Rd nan RD Atlanta GA 30339,"2255 Peachtree Rd NE, Atlanta, Georgia, 30309",-84.3905271,33.81579171,FALSE,District 7,E
GBL-0821-05934,JM South Buckhead,Orangetheory Fitness,"Arts, Entertainment & Recreation",,,2025-05-28 23:04:57,713940,Fitness and Recreational Sports Centers ,,,2255 Peachtree Rd,,RD,NE,STE J,Atlanta,GA,30339,2255 Peachtree Rd nan RD Atlanta GA 30339,"2255 Peachtree Rd NE, Atlanta, Georgia, 30309",-84.3905271,33.81579171,FALSE,District 7,E
GBL-0824-32644,Strive Brands BNG WM O1,The Back Nine Golf West Midtown,"Arts, Entertainment & Recreation",,,2025-05-14 21:16:32,713990,All Other Amusement and Recreation Industries ,,,212 Chattahoochee Row,,,NW,,Atlanta,GA,30318,212 Chattahoochee Row nan nan Atlanta GA 30318,"212 Chattahoochee Row NW, Atlanta, Georgia, 30318",-84.42923799,33.80361201,FALSE,District 9,D
GBL-0924-33139,Mysore Yoga Atlanta LLC,,"Arts, Entertainment & Recreation",,,2025-06-03 23:05:51,713940,Fitness and Recreational Sports Centers ,,,Piedmont Center North Building 15,3575 Piedmont Rd NE,,,T100,Atlanta,GA,30305,Piedmont Center North Building 15 3575 Piedmont Rd NE nan Atlanta GA 30305,"3575 Piedmont Rd NE, Building 15, Atlanta, Georgia, 30305",-84.37893635,33.8538663,FALSE,District 7,B
GBL-0924-33354,Palatine Services LLC,,"Arts, Entertainment & Recreation",,,2025-05-01 11:48:40,713990,All Other Amusement and Recreation Industries ,,NE,691 John Wesley Dobbs Ave,,,,Ste C,Atlanta,GA,30312,691 John Wesley Dobbs Ave nan nan Atlanta GA 30312,"691 John Wesley Dobbs Ave NE, Atlanta, Georgia, 30312",-84.36484528,33.75901752,FALSE,District 2,M
GBL-1021-07026,"TRANSFORM ATHLETE, LLC",TRANSFORM ATHLETE,"Arts, Entertainment & Recreation",,,2025-07-01 11:05:39,713940,Fitness and Recreational Sports Centers ,,,3261,ROSWELL,RD,NE,,Atlanta,GA,,3261 ROSWELL RD Atlanta GA nan,"3261 Roswell Rd NE, Atlanta, Georgia, 30305",-84.37949718,33.84467231,FALSE,District 7,B
GBL-1023-24103,The Frisky Whisker LLC,The Frisky Whisker,"Arts, Entertainment & Recreation",,,2025-07-10 09:59:31,713990,All Other Amusement and Recreation Industries ,,,94 Pryor street ,,ST,SW,,Atlanta,GA,30303,94 Pryor street  nan ST Atlanta GA 30303,"94 Pryor St SW, Atlanta, Georgia, 30303",-84.39004103,33.75258701,FALSE,District 4,M
GBL-1024-33917,Repeat ATL LLC,Repeat Atlanta,"Arts, Entertainment & Recreation",,,2025-06-25 23:05:05,448110,Mens Clothing Stores ,,,260,18TH,Street,NW,,Atlanta,GA,30363,260 18TH Street Atlanta GA 30363,"260 18th St NW, Atlanta, Georgia, 30363",-84.39708912,33.79221103,FALSE,District 3,E
GBL-1024-33944,"The Studio Pilates, LLC",The Studio Pilates,"Arts, Entertainment & Recreation",,,2025-03-11 23:04:04,713940,Fitness and Recreational Sports Centers ,,,763,TRABERT,Avenue,NW,Suite D,Atlanta,GA,30318,763 TRABERT Avenue Atlanta GA 30318,"763 Trabert Ave NW, Atlanta, Georgia, 30318",-84.41347121,33.79487329,FALSE,District 9,D
GBL-1124-34146,"The Game Show Challenge SC, LLC",,"Arts, Entertainment & Recreation",,,2025-04-13 21:17:38,713990,All Other Amusement and Recreation Industries ,,,1000 White St SW,,,,,Atlanta,GA,30310,1000 White St SW nan nan Atlanta GA 30310,"1000 White St SW, Atlanta, Georgia, 30310",-84.41710842,33.72994326,FALSE,District 4,T
GBL-1220-00146,The Bluff Boulder + Fitness,The Overlook Boulder + Fitness,"Arts, Entertainment & Recreation",,,2025-03-31 18:36:51,713940,Fitness and Recreational Sports Centers ,,SW,1030 White St,,ST,SW,,Atlanta,GA,30310,1030 White St nan ST Atlanta GA 30310,"1030 White St SW, Atlanta, Georgia, 30310",-84.42132833,33.73151616,FALSE,District 4,T
LGB-011252-2020,SANDLER-HUDSON GALLERY INC,,"Arts, Entertainment & Recreation",,,2025-05-20 10:45:41,713990,All Other Amusement and Recreation Industries ,,,739 Trabert ,,AVE,NW,STE B,ATLANTA,GA,30318,739 Trabert  nan AVE ATLANTA GA 30318,"739 Trabert Ave NW, Atlanta, Georgia, 30318",-84.41201897,33.79540801,FALSE,District 9,D
LGB-012432-2020,PICTURE THIS GALLERY & FRAMING,,"Arts, Entertainment & Recreation",,,2025-03-26 01:03:11,713990,All Other Amusement and Recreation Industries ,,,3145,PEACHTREE,RD,NE,STE 125,ATLANTA,GA,30305,3145 PEACHTREE RD ATLANTA GA 30305,"3145 Peachtree Rd NE, Atlanta, Georgia, 30305",-84.37782197,33.840232,FALSE,District 7,B
LGB-017041-2020,TURNER SPORTS INC ONE CNN CENT,,"Arts, Entertainment & Recreation",,,2025-03-31 18:32:58,713990,All Other Amusement and Recreation Industries ,,,1015,TECHWOOD,DR,NW,,ATLANTA,GA,30303,1015 TECHWOOD DR ATLANTA GA 30303,"1015 Techwood Dr NW, Atlanta, Georgia, 30318",-84.39353905,33.78202609,FALSE,District 3,E
LGB-017041-2020,TURNER SPORTS INC ONE CNN CENT,,"Arts, Entertainment & Recreation",,,2025-03-31 18:32:58,713990,All Other Amusement and Recreation Industries ,,,1015,TECHWOOD,DR,NW,,ATLANTA,GA,30303,1015 TECHWOOD DR ATLANTA GA 30303,"1015 Techwood Dr NW, Atlanta, Georgia, 30318",-84.39353905,33.78202609,FALSE,District 3,E
LGB-017041-2020,TURNER SPORTS INC ONE CNN CENT,,"Arts, Entertainment & Recreation",,,2025-03-31 18:32:58,713990,All Other Amusement and Recreation Industries ,,,1015,TECHWOOD,DR,NW,,ATLANTA,GA,30303,1015 TECHWOOD DR ATLANTA GA 30303,"1015 Techwood Dr NW, Atlanta, Georgia, 30318",-84.39353905,33.78202609,FALSE,District 3,E
LGB-021730-2020,TURNER INTERN'L LATIN AMERICA,,"Arts, Entertainment & Recreation",,,2025-03-31 18:35:22,713990,All Other Amusement and Recreation Industries ,,,1050,TECHWOOD,DR,NW,,ATLANTA,GA,30318,1050 TECHWOOD DR ATLANTA GA 30318,"1050 Techwood Dr NW, Atlanta, Georgia, 30318",-84.3924515,33.78340152,FALSE,District 3,E
LGB-021730-2020,TURNER INTERN'L LATIN AMERICA,,"Arts, Entertainment & Recreation",,,2025-03-31 18:35:22,713990,All Other Amusement and Recreation Industries ,,,1050,TECHWOOD,DR,NW,,ATLANTA,GA,30318,1050 TECHWOOD DR ATLANTA GA 30318,"1050 Techwood Dr NW, Atlanta, Georgia, 30318",-84.3924515,33.78340152,FALSE,District 3,E
LGB-105462-2020,"ATL HAWKS, LLC",,"Arts, Entertainment & Recreation",,,2025-03-19 09:56:35,713990,All Other Amusement and Recreation Industries ,,,101,MARIETTA,ST,NW,STE-1900,ATLANTA,GA,30303,101 MARIETTA ST ATLANTA GA 30303,101 Marietta Street,-84.392204,33.756917,FALSE,District 2,M
LGB-105462-2020,"ATL HAWKS, LLC",,"Arts, Entertainment & Recreation",,,2025-03-19 09:56:35,713990,All Other Amusement and Recreation Industries ,,,101,MARIETTA,ST,NW,STE-1900,ATLANTA,GA,30303,101 MARIETTA ST ATLANTA GA 30303,101 Marietta Street,-84.392204,33.756917,FALSE,District 2,M
LGB-135797-2020,FANTASY CARRIAGES,,"Arts, Entertainment & Recreation",,,2025-04-01 19:01:41,713990,All Other Amusement and Recreation Industries ,,,419,WHITEHALL,ST,SW,,ATLANTA,GA,30303,419 WHITEHALL ST ATLANTA GA 30303,"419 Whitehall St SW, Atlanta, Georgia, 30303",-84.40182054,33.74500155,FALSE,District 4,M
LGB-171368-2020,VESTA MOVEMENT LLC,,"Arts, Entertainment & Recreation",,,2025-04-02 21:05:03,713940,Fitness and Recreational Sports Centers ,,,678,EDGEWOOD,AVE,SE,Suites 2 & 3,ATLANTA,GA,30307,678 EDGEWOOD AVE ATLANTA GA 30307,"678 Edgewood Ave NE, Atlanta, Georgia, 30312",-84.36578372,33.75488281,FALSE,District 2,M
LGB-171716-2020,"EAST LAKE GOLF CLUB, INC",EAST LAKE GOLF CLUB,"Arts, Entertainment & Recreation",,,2025-08-08 16:27:47,713910,Golf Courses and Country Clubs,,,2575,ALSTON,DR,SE,,ATLANTA,GA,30317,2575 ALSTON DR ATLANTA GA 30317,"2575 Alston Dr SE, Atlanta, Georgia, 30317",-84.30272171,33.74349256,FALSE,,O
LGB-174201-2020,"SLATER PARK, LLC",SKYLINE PARK,"Arts, Entertainment & Recreation",,,2025-03-21 01:03:59,713990,All Other Amusement and Recreation Industries ,,,675,PONCE DE LEON,AVE,NE,THE ROEBCK,ATLANTA,GA,30308,675 PONCE DE LEON AVE ATLANTA GA 30308,"675 Ponce de Leon Ave NE, Atlanta, Georgia, 30308",-84.36574969,33.77300251,FALSE,District 2,M
LGB-175786-2019,"CJ ENTERTAINMENT, LLC",Follies Gentlemen's Club,"Arts, Entertainment & Recreation",,,2025-07-23 11:05:15,713990,All Other Amusement and Recreation Industries ,,,1635,MORELAND,AVE,SE,,ATLANTA,GA,30316,1635 MORELAND AVE ATLANTA GA 30316,"1635 Moreland Ave SE, Atlanta, Georgia, 30316",-84.34996044,33.70945587,FALSE,District 1,W
LGB-177524-2020,"SEDUCTION, LLC",SEDUCTION,"Arts, Entertainment & Recreation",,,2025-04-03 21:02:48,713990,All Other Amusement and Recreation Industries ,,,3548,EMPIRE,BLVD,SW,,ATLANTA,GA,30354,3548 EMPIRE BLVD ATLANTA GA 30354,"3548 Empire Blvd SW, Atlanta, Georgia, 30354",-84.39078828,33.65751313,TRUE,District 12,Z
LGB-177524-2020,"SEDUCTION, LLC",SEDUCTION,"Arts, Entertainment & Recreation",,,2025-04-03 21:02:48,713990,All Other Amusement and Recreation Industries ,,,3548,EMPIRE,BLVD,SW,,ATLANTA,GA,30354,3548 EMPIRE BLVD ATLANTA GA 30354,"3548 Empire Blvd SW, Atlanta, Georgia, 30354",-84.39078828,33.65751313,TRUE,District 12,Z
LGB-182880-2020,"E.F.F.E.C.T. FITNESS,LLC",,"Arts, Entertainment & Recreation",,,2025-04-29 21:02:33,713940,Fitness and Recreational Sports Centers ,,,1995,METROPOLITAN,PKWY,SW,,ATLANTA,GA,30315,1995 METROPOLITAN PKWY ATLANTA GA 30315,"1995 Metropolitan Pkwy SW, Atlanta, Georgia, 30315",-84.40815298,33.69929101,TRUE,District 12,X
LGB-185354-2020,MASSAGE ENVY WEST MIDTOWN,,"Arts, Entertainment & Recreation",,,2025-04-01 18:36:39,713940,Fitness and Recreational Sports Centers ,,,1801,HOWELL MILL,RD,NW,STE-560,ATLANTA,GA,30318,1801 HOWELL MILL RD ATLANTA GA 30318,"1801 Howell Mill Rd NW, Atlanta, Georgia, 30318",-84.41193707,33.80328671,FALSE,District 9,D
LGB-185355-2020,MASSAGE ENVY MIDTOWN,,"Arts, Entertainment & Recreation",,,2025-03-31 18:37:00,713940,Fitness and Recreational Sports Centers ,,,650,PONCE DE LEON,AVE,NE,STE 600A,ATLANTA,GA,30308,650 PONCE DE LEON AVE ATLANTA GA 30308,"650 Ponce de Leon Ave NE, Atlanta, Georgia, 30308",-84.36585597,33.77406999,FALSE,District 6,E
LGB-186400-2020,MASSAGE ENVY-BUCKHEAD LOOP,,"Arts, Entertainment & Recreation",,,2025-03-26 01:03:36,713940,Fitness and Recreational Sports Centers ,,,3495,BUCKHEAD LOOP,ST,NE,STE 225,ATLANTA,GA,30326,3495 BUCKHEAD LOOP ST ATLANTA GA 30326,"3495 Buckhead Loop NE, Atlanta, Georgia, 30326",-84.37047499,33.85062099,FALSE,District 7,B
LGB-186403-2020,MASSAGE ENVY-CAMP CREEK,,"Arts, Entertainment & Recreation",,,2025-03-26 01:03:21,713940,Fitness and Recreational Sports Centers ,,,3755,CARMIA,DR,SW,STE 410,ATLANTA,GA,30331,3755 CARMIA DR ATLANTA GA 30331,"3755 Carmia Dr, Atlanta, Georgia, 30331",-84.50979378,33.65588853,FALSE,District 11,P
LGB-185159-2020,"Crown Global Investments, Inc.",CIRCLE K #2655984,Construction,,,2025-03-27 01:04:27,445120,Convenience Stores ,,,160,Ted Turner,DR,NW,2B,ATLANTA,GA,30303,160 Ted Turner DR ATLANTA GA 30303,"160 Ted Turner Dr NW, Atlanta, Georgia, 30303",-84.39009258,33.75934542,FALSE,District 2,M
GBL-0223-18771,Black beads @ Ray LLC,,Disabled Veteran,,,2025-01-02 10:08:28,453998,All Other Miscellaneous Store Retailers (except Tobacco Stores) ,,,1844 Honeysuckle ,,LN,SW,Apt 228,Atlanta,GA,30311,1844 Honeysuckle  nan LN Atlanta GA 30311,"1844 Honeysuckle Ln SW, Atlanta, Georgia, 30311",-84.45375031,33.70634025,TRUE,11,R
GBL-0122-09171,LT Nail Spa LLc,,Educational Services,,,2025-01-06 13:05:33,812113,Nail Salons ,,NW,857 Collier Rd,,,NW,suite 13,Atlanta,GA,30318,857 Collier Rd nan nan Atlanta GA 30318,"857 Collier Rd NW, Atlanta, Georgia, 30318",-84.41597481,33.81038283,FALSE,8,C
GBL-0123-17961,We are Statuz Incorporated,,Educational Services,,,2025-02-14 09:14:43,812111,Barber Shops ,,,830 Westview,,DR,,Suite 4,Atlanta,GA,30314,830 Westview nan DR Atlanta GA 30314,"830 Westview Dr SW, Atlanta, Georgia, 30314",-84.41580708,33.74819196,FALSE,4,T
GBL-0222-09859,"Jamison Shaw Advanced Hairdressing Systems, Inc.",The Academy at Jamison Shaw,Educational Services,,,2025-01-25 15:06:52,812112,Beauty Salons ,,,3330  PIEDMONT  RD,,,NE,,Atlanta,GA,30305,3330  PIEDMONT  RD nan nan Atlanta GA 30305,"3330 Piedmont Rd NE, Atlanta, Georgia, 30305",-84.37397217,33.84615025,FALSE,7,B
GBL-0521-03614,AKEA 14 LLC/LUSH NAIL BAR,,Educational Services,,,2025-02-11 02:54:24,812112,Beauty Salons ,,,232 19TH ST NW,,,,STE 7120,Atlanta,GA,30303,232 19TH ST NW nan nan Atlanta GA 30303,"232 19th St NW, Atlanta, Georgia, 30363",-84.39547301,33.79294,FALSE,3,E
GBL-0621-03659,TrulyMade,,Educational Services,,,2025-02-15 18:51:18,812112,Beauty Salons ,,,1544 Piedmont ,,AVE,NE,Ste 28,ATLANTA,GA,30324,1544 Piedmont  nan AVE ATLANTA GA 30324,"1544 Piedmont Ave NE, Atlanta, Georgia, 30324",-84.37126976,33.7981895,FALSE,6,F
GBL-0621-03831,West End Nail Bar Salon,Nguyen's West End Nails,Educational Services,,,2025-02-11 15:09:31,812113,Nail Salons ,,,576,LEE,ST,SW,Suite C,Atlanta,GA,,576 LEE ST Atlanta GA nan,"576 Lee St SW, Atlanta, Georgia, 30310",-84.41369132,33.73924532,FALSE,4,T
GBL-0621-04566,"C&S Beauty II, LLC",,Educational Services,,,2025-02-11 02:53:32,446120,"Cosmetics, Beauty Supplies, and Perfume Stores ",,,87 Peachtree St,,ST,SW,C,Atlanta,GA,30303,87 Peachtree St nan ST Atlanta GA 30303,"87 Peachtree St SW, Atlanta, Georgia, 30303",-84.39244135,33.75248567,FALSE,4,M
GBL-0821-05424,"BEE Sage, LLC",Salon SEJ Skincare,Educational Services,,,2025-01-09 09:05:23,812112,Beauty Salons ,,,1544 Piedmont ,,AVE,NE,Unit 117,Atlanta,GA,30324,1544 Piedmont  nan AVE Atlanta GA 30324,"1544 Piedmont Ave NE, Atlanta, Georgia, 30324",-84.37126976,33.7981895,FALSE,6,F
GBL-0821-05829,Hammond Nails and Spa,,Educational Services,,,2025-02-10 19:10:41,812113,Nail Salons ,,,4279 ROSWELL RD NE,,,,602,ATLANTA,GA,30342,4279 ROSWELL RD NE nan nan ATLANTA GA 30342,"4279 Roswell Rd NE, Atlanta, Georgia, 30342",-84.37933139,33.87112355,FALSE,7,B
GBL-0824-32684,Akasa Trine LLC,Akasa Trine LLC,Educational Services,,,2025-02-07 08:54:17,812112,Beauty Salons ,,SE,593 Edgewood Ave,,AVE,,,Atlanta,GA,30312,593 Edgewood Ave nan AVE Atlanta GA 30312,"593 Edgewood Ave SE, Atlanta, Georgia, 30312",-84.36769915,33.75399223,FALSE,2,M
GBL-0824-32695,Akasa Trine LLC,Akasa Trine LLC,Educational Services,,,2025-02-07 08:50:20,812112,Beauty Salons ,,,760 United Ave SE,STE 3,,,,Atlanta,GA,30312,760 United Ave SE STE 3 nan Atlanta GA 30312,"760 United Ave SE, Atlanta, Georgia, 30312",-84.36471025,33.73347782,FALSE,1,W
GBL-0824-32706,"August Sunshine, Inc.",Ginkgo Spa,Educational Services,,,2025-01-21 10:54:11,812112,Beauty Salons ,,,4285 Roswell road NE,,,,Suite 3,Atlanta,GA,30342,4285 Roswell road NE nan nan Atlanta GA 30342,"4285 Roswell Rd NE, Atlanta, Georgia, 30342",-84.38050159,33.87188047,FALSE,7,B
GBL-0924-33081,Rio Body Wax Center LLC,Rio Body Wax Center,Educational Services,,,2025-02-20 23:08:00,812112,Beauty Salons ,,,3730 Carmia,,DR,SW,190,Atlanta,GA,30331,3730 Carmia nan DR Atlanta GA 30331,"3730 Carmia Dr SW, Atlanta, Georgia, 30331",-84.51076399,33.65648748,FALSE,11,P
GBL-1021-07183,House of Monroe LLC,For Textured Girls,Educational Services,,,2025-02-13 13:06:34,812112,Beauty Salons ,,,720 Morosgo ,,DR,NE,Unit 100,Atlanta,GA,30324,720 Morosgo  nan DR Atlanta GA 30324,"720 Morosgo Dr NE, Atlanta, Georgia, 30324",-84.36476506,33.8235039,FALSE,6,B
GBL-1121-07930,Let's pHace It Skin Bar,pHace It Skin Bar,Educational Services,,,2025-02-15 18:42:24,812112,Beauty Salons ,,,2250 Marietta,,BLVD,NW,Suite 308,Atlanta,GA,30318,2250 Marietta nan BLVD Atlanta GA 30318,"2250 Marietta Blvd, Atlanta, Georgia, 30318",-84.46382024,33.80585723,TRUE,9,G
GBL-1121-07956,Hairrocks by Sade Studio,,Educational Services,,,2025-02-15 18:59:10,812112,Beauty Salons ,,,855 Society Circle,,,,,Atlanta,GA,30331,855 Society Circle nan nan Atlanta GA 30331,"855 Society Cir SW, Atlanta, Georgia, 30331",-84.49980909,33.74706534,TRUE,10,H
GBL-1121-08092,Ethnic Braids LLC,Ethnic Braids LLC,Educational Services,,,2025-02-13 09:11:24,812112,Beauty Salons ,,,593 Cascade,,AVE,SW,,atlanta,GA,30310,593 Cascade nan AVE atlanta GA 30310,"593 Cascade Ave SW, Atlanta, Georgia, 30310",-84.43447236,33.73864064,FALSE,10,T
GBL-1221-08264,"The Nail Code, LLC",The Nail Code,Educational Services,,,2025-02-15 19:03:58,812113,Nail Salons ,,,780,N HIGHLAND,AVE,NE,Unit 121,Atlanta,GA,30306,780 N HIGHLAND AVE Atlanta GA 30306,"780 N Highland Ave NE, Atlanta, Georgia, 30306",-84.35286855,33.77586581,FALSE,6,F
GBL-1221-08315,Level 7....a salon,,Educational Services,,,2025-02-07 16:06:13,812112,Beauty Salons ,,NE,"1544 Piedmont Ave Suite 131 Atlanta, GA 30324",,AVE,NE,131,Atlanta,GA,30324,"1544 Piedmont Ave Suite 131 Atlanta, GA 30324 nan AVE Atlanta GA 30324","1544 Piedmont Ave NE, Suite 131, Atlanta, Georgia, 30324",-84.37126976,33.7981895,FALSE,6,F
GBL-1221-08323,Native Mane Salon LLc.,Native Mane Salon,Educational Services,,,2025-01-30 13:05:20,812111,Barber Shops ,,,332,Ormond,ST,SE,Suite 103,Atlanta,GA,30315,332 Ormond ST Atlanta GA 30315,"332 Ormond St SE, Atlanta, Georgia, 30315",-84.37675555,33.73169855,FALSE,1,W
GBL-1221-08323,Native Mane Salon LLc.,Native Mane Salon,Educational Services,,,2025-01-30 13:05:20,812111,Barber Shops ,,,332,Ormond,ST,SE,Suite 103,Atlanta,GA,30315,332 Ormond ST Atlanta GA 30315,"332 Ormond St SE, Atlanta, Georgia, 30315",-84.37675555,33.73169855,FALSE,1,W
GBL-1221-08515,Treanaj salon,,Educational Services,,,2025-02-16 18:35:54,812112,Beauty Salons ,,,935 marrietta st,,ST,,23,Atlanta,GA,30318,935 marrietta st nan ST Atlanta GA 30318,"935 Marietta St NW, Atlanta, Georgia, 30318",-84.40852187,33.77816899,FALSE,3,E
GBL-1221-08781,Goddess Fever,,Educational Services,,,2025-02-15 19:06:38,812112,Beauty Salons ,,NW,2250 Marietta,,BLVD,,unit 308 suite 203,atlanta,GA,30318,2250 Marietta nan BLVD atlanta GA 30318,"2250 Marietta Blvd, Atlanta, Georgia, 30318",-84.46382024,33.80585723,TRUE,9,G
GBL-1222-17512,The Faded Beauty LLC,,Educational Services,,,2025-02-16 18:40:10,812112,Beauty Salons ,,SE,492 Flat Shoals,B,AVE,SE,b,Atlanta,GA,30316,492 Flat Shoals B AVE Atlanta GA 30316,"492 Flat Shoals Ave SE, Atlanta, Georgia, 30316",-84.34591341,33.74078935,FALSE,5,W
LGB-001054-2020,JAMISON SHAW HAIR DRESSERS,,Educational Services,,,2025-01-28 17:04:48,812112,Beauty Salons ,,,3330,PIEDMONT,RD,NE,,ATLANTA,GA,30305,3330 PIEDMONT RD ATLANTA GA 30305,"3330 Piedmont Rd NE, Atlanta, Georgia, 30305",-84.37397217,33.84615025,FALSE,7,B
LGB-003908-2020,DOT WILLIS BOUTIQUE,,Educational Services,,,2025-02-04 17:05:12,812112,Beauty Salons ,,,119,MARTIN L KING JR,DR,NW,,ATLANTA,GA,30303,119 MARTIN L KING JR DR ATLANTA GA 30303,"119 Martin Luther King Jr Dr SW, Atlanta, Georgia, 30303",-84.39175697,33.75203598,FALSE,4,M
LGB-004847-2020,AZAR PROG STYLE IN HAIR,,Educational Services,,,2025-02-08 16:05:21,812112,Beauty Salons ,,,2980,N FULTON,DR,NE,,ATLANTA,GA,30305,2980 N FULTON DR ATLANTA GA 30305,"2980 N Fulton Dr NE, Atlanta, Georgia, 30305",-84.37897482,33.8331684,FALSE,7,B
LGB-006288-2020,TERJOMILS NAIL SALON,,Educational Services,,,2025-01-30 15:04:29,812112,Beauty Salons ,,,3098,PIEDMONT,RD,NE,SUITE 120,ATLANTA,GA,30305,3098 PIEDMONT RD ATLANTA GA 30305,"3098 Piedmont Rd NE, Atlanta, Georgia, 30305",-84.3701983,33.84014596,FALSE,7,B
LGB-007226-2020,VAN MICHAEL SALON,,Educational Services,,,2025-02-11 15:09:59,812112,Beauty Salons ,,,39,W PACES FERRY,RD,NW,,ATLANTA,GA,30305,39 W PACES FERRY RD ATLANTA GA 30305,"39 W Paces Ferry Rd NW, Atlanta, Georgia, 30305",-84.38114659,33.8399258,FALSE,8,B
LGB-007610-2020,TAKE CARE,,Educational Services,,,2025-02-12 13:12:19,812112,Beauty Salons ,,,539,PHARR,RD,NE,,ATLANTA,GA,30305,539 PHARR RD ATLANTA GA 30305,"539 Pharr Rd NE, Atlanta, Georgia, 30305",-84.37045126,33.83679865,FALSE,7,B
LGB-010116-2020,Edith's Beauty Enhancer LLC,,Educational Services,,,2025-01-27 10:04:55,812112,Beauty Salons ,,,2558,MARTIN L KING JR,DR,NW,,ATLANTA,GA,30311,2558 MARTIN L KING JR DR ATLANTA GA 30311,"2558 Martin Luther King Jr Dr SW, Atlanta, Georgia, 30311",-84.47148756,33.75303141,FALSE,10,I
LGB-013684-2020,CORTEX,,Educational Services,,,2025-01-27 12:04:13,812112,Beauty Salons ,,,1177,VIRGINIA,AVE,NE,,ATLANTA,GA,30306,1177 VIRGINIA AVE ATLANTA GA 30306,"1177 Virginia Ave NE, Atlanta, Georgia, 30306",-84.34915679,33.77995979,FALSE,6,F
LGB-013805-2020,JANIS MILTER SALON,,Educational Services,,,2025-01-14 13:10:02,812112,Beauty Salons ,,,110,E ANDREWS,DR,NW,STE 222,ATLANTA,GA,30305,110 E ANDREWS DR ATLANTA GA 30305,"110 E Andrews Dr NW, Atlanta, Georgia, 30305",-84.38272111,33.84285432,FALSE,8,B
LGB-013939-2020,THE BARBER SHOP,,Educational Services,,,2025-02-13 11:21:32,812111,Barber Shops ,,,2841,GREENBRIAR,PKWY,SW,,ATLANTA,GA,30331,2841 GREENBRIAR PKWY ATLANTA GA 30331,"2841 Greenbriar Pkwy SW, Atlanta, Georgia, 30331",-84.49571939,33.68661803,TRUE,11,R
LGB-014599-2020,"CROSS CUTS HAIR SALON, INC.",,Educational Services,,,2025-02-10 19:10:17,812112,Beauty Salons ,,,999,PEACHTREE,ST,NE,SUITE 720,ATLANTA,GA,30309,999 PEACHTREE ST ATLANTA GA 30309,"999 Peachtree St NE, Atlanta, Georgia, 30309",-84.38336786,33.78104868,FALSE,2,E
LGB-016720-2020,EIKEY'S HAIR STUDIO,,Educational Services,,,2025-02-16 18:47:36,812112,Beauty Salons ,,,2962,GRANDVIEW,AVE,NE,,ATLANTA,GA,30305,2962 GRANDVIEW AVE ATLANTA GA 30305,"2962 Grandview Ave NE, Atlanta, Georgia, 30305",-84.37662931,33.83549886,FALSE,7,B
LGB-018895-2020,NAIL MAGIC/NAIL SALON,,Educational Services,,,2025-01-19 18:49:48,812112,Beauty Salons ,,,2221,PEACHTREE,RD,NE,SUITE T,ATLANTA,GA,30309,2221 PEACHTREE RD ATLANTA GA 30309,"2221 Peachtree Rd NE, Atlanta, Georgia, 30309",-84.39114199,33.81458899,FALSE,7,E
LGB-027471-2020,ODDO'S,,Educational Services,,,2025-03-04 23:06:57,812112,Beauty Salons ,,,730,BARNETT,ST,NE,,ATLANTA,GA,30306,730 BARNETT ST ATLANTA GA 30306,"730 Barnett St NE, Atlanta, Georgia, 30306",-84.35901684,33.77442685,FALSE,6,F
LGB-029879-2019,BOBBY BARBER SHOP,,Educational Services,,,2025-02-13 09:08:01,812111,Barber Shops ,,,812,MARTIN L KING JR,DR,SW,,ATLANTA,GA,30314,812 MARTIN L KING JR DR ATLANTA GA 30314,"812 Martin Luther King Dr, Atlanta, Georgia, 30314",-84.41413572,33.75465164,FALSE,4,T
LGB-029879-2019,BOBBY BARBER SHOP,,Educational Services,,,2025-02-13 09:08:01,812111,Barber Shops ,,,812,MARTIN L KING JR,DR,SW,,ATLANTA,GA,30314,812 MARTIN L KING JR DR ATLANTA GA 30314,"812 Martin Luther King Dr, Atlanta, Georgia, 30314",-84.41413572,33.75465164,FALSE,4,T
LGB-030583-2020,AMBROSIA SALON,,Educational Services,,,2025-01-29 13:20:03,812111,Barber Shops ,,,1750,HOWELL MILL,RD,NW,UNIT B2,ATLANTA,GA,30318,1750 HOWELL MILL RD ATLANTA GA 30318,"1750 Howell Mill Rd NW, Atlanta, Georgia, 30318",-84.41577926,33.80175592,FALSE,9,D
LGB-043374-2020,LANGFORDS BARBER SHOP&STYLE CT,,Educational Services,,,2025-01-13 04:17:11,812111,Barber Shops ,,,1947,BOULEVARD,DR,SE,,ATLANTA,GA,30317,1947 BOULEVARD DR ATLANTA GA 30317,"Boulevard Dr NE, Atlanta, Georgia, 30317",-84.3528621,33.7535743,FALSE,5,N
LGB-043831-2020,THE WRIGHT STYLE,,Educational Services,,,2025-01-22 17:05:16,812112,Beauty Salons ,,,582,WOODWARD,AVE,SE,,ATLANTA,GA,30312,582 WOODWARD AVE ATLANTA GA 30312,"582 Woodward Ave SE, Atlanta, Georgia, 30312",-84.368666,33.74562701,FALSE,1,W
LGB-049805-2020,BEAUTY CITI B & B SUPPLY,,Educational Services,,,2025-02-03 17:04:32,812111,Barber Shops ,,,3565,MARTIN L KING JR,DR,SW,,ATLANTA,GA,30311,3565 MARTIN L KING JR DR ATLANTA GA 30311,"3565 Martin Luther King Jr Dr SW, Atlanta, Georgia, 30331",-84.50408302,33.76014099,TRUE,10,H
LGB-050365-2020,RIMMA NAILS & SKIN CARE INC,,Educational Services,,,2025-02-02 15:34:52,812112,Beauty Salons ,,,3580,PIEDMONT,RD,NE,STE 220,ATLANTA,GA,30305,3580 PIEDMONT RD ATLANTA GA 30305,"3580 Piedmont Rd NE, Atlanta, Georgia, 30305",-84.38098698,33.85198774,FALSE,7,B
LGB-051143-2020,U SALON,,Educational Services,,,2025-02-17 15:29:16,812112,Beauty Salons ,,,631 Miami Circle,,,NE,#23,ATLANTA,GA,30324,631 Miami Circle nan nan ATLANTA GA 30324,"631 Miami Cir NE, Atlanta, Georgia, 30324",-84.36532003,33.82827899,FALSE,7,B
LGB-051143-2020,U SALON,,Educational Services,,,2025-02-17 15:29:16,812112,Beauty Salons ,,,631 Miami Circle,,,NE,#23,ATLANTA,GA,30324,631 Miami Circle nan nan ATLANTA GA 30324,"631 Miami Cir NE, Atlanta, Georgia, 30324",-84.36532003,33.82827899,FALSE,7,B
LGB-052704-2020,RICK'S BARBER & BEAUTY SALON,,Educational Services,,,2025-01-29 09:34:55,812111,Barber Shops ,,,3640,CAMPBELLTON,RD,SW,,ATLANTA,GA,30331,3640 CAMPBELLTON RD ATLANTA GA 30331,"3640 Campbellton Rd SW, Atlanta, Georgia, 30331",-84.50763041,33.6897291,FALSE,11,P
LGB-055081-2020,TOUBA HAIR FASHION,,Educational Services,,,2025-02-07 10:34:28,812112,Beauty Salons ,,,1955,CAMPBELLTON,RD,SW,STE E,ATLANTA,GA,30311,1955 CAMPBELLTON RD ATLANTA GA 30311,"1955 Campbellton Rd SW, Atlanta, Georgia, 30311",-84.45310781,33.70863713,TRUE,11,S
LGB-055385-2020,CARTER BARNES ON PACES,,Educational Services,,,2025-02-11 11:35:51,812112,Beauty Salons ,,,3220,PACES FERRY,PL,NW,,ATLANTA,GA,30305,3220 PACES FERRY PL ATLANTA GA 30305,"3220 Paces Ferry Pl NW, Atlanta, Georgia, 30305",-84.38227872,33.84259582,FALSE,8,B
LGB-060841-2020,GERALYNE KING,,Educational Services,,,2025-02-16 18:38:57,812112,Beauty Salons ,,,3552,MARTIN L KING JR,DR,SW,STE 302-A,ATLANTA,GA,30311,3552 MARTIN L KING JR DR ATLANTA GA 30311,"3552 Martin Luther King Jr Dr SW, Atlanta, Georgia, 30331",-84.50406215,33.75820988,TRUE,10,H
LGB-060976-2019,FRANKLIN DORSEY LTD,,Educational Services,,,2025-02-14 19:16:03,812112,Beauty Salons ,,,1820,PEACHTREE,RD,NW,STE 401,ATLANTA,GA,30309,1820 PEACHTREE RD ATLANTA GA 30309,"1820 Peachtree St NW, Atlanta, Georgia, 30309",-84.39408597,33.80499595,FALSE,8,E
LGB-061219-2020,SALON 550,,Educational Services,,,2025-02-12 11:08:53,812112,Beauty Salons ,,,110,E ANDREWS,DR,NW,STE 208,ATLANTA,GA,30305,110 E ANDREWS DR ATLANTA GA 30305,"110 E Andrews Dr NW, Atlanta, Georgia, 30305",-84.38272111,33.84285432,FALSE,8,B
LGB-061988-2020,ANGIE'S BEAUTY SUPPLY & SALON,,Educational Services,,,2025-01-31 13:36:13,812112,Beauty Salons ,,,1145,RALPH D ABERNATHY,BLVD,SW,,ATLANTA,GA,30310,1145 RALPH D ABERNATHY BLVD ATLANTA GA 30310,"1145 Ralph David Abernathy Blvd SW, Atlanta, Georgia, 30310",-84.4255197,33.73905057,FALSE,4,T
LGB-062573-2020,ROBIN STILES SALONINC,,Educational Services,,,2025-01-25 15:06:30,812112,Beauty Salons ,,,3232,PEACHTREE,RD,NE,,ATLANTA,GA,30305,3232 PEACHTREE RD ATLANTA GA 30305,"3232 Peachtree Rd NE, Atlanta, Georgia, 30305",-84.37412053,33.84442677,FALSE,7,B
LGB-062839-2020,WAYNES WORLD,,Educational Services,,,2025-01-15 17:09:22,812111,Barber Shops ,,,3070,CAMPBELLTON,RD,SW,,ATLANTA,GA,30311,3070 CAMPBELLTON RD ATLANTA GA 30311,"3070 Campbellton Rd SW, Atlanta, Georgia, 30311",-84.48766388,33.69448826,TRUE,11,R
LGB-063489-2020,HAIR AFFAIR BY CYNTHIA,,Educational Services,,,2025-02-12 09:07:53,812112,Beauty Salons ,,,3480,GREENBRIAR,PKWY,,#111,ATLANTA,GA,30331,3480 GREENBRIAR PKWY ATLANTA GA 30331,"3480 Greenbriar Pkwy SW, Atlanta, Georgia, 30331",-84.50264737,33.68291604,FALSE,11,P
LGB-064627-2020,CRAIG MCQUEEN SALON,,Educational Services,,,2025-02-11 09:07:04,812112,Beauty Salons ,,,3872,ROSWELL,RD,NE,#C-6,ATLANTA,GA,30342,3872 ROSWELL RD ATLANTA GA 30342,"3872 Roswell Rd NE, Atlanta, Georgia, 30342",-84.38094096,33.86089498,FALSE,8,B
LGB-066027-2020,JOSEPH KRISTIE INC,,Educational Services,,,2025-02-06 14:39:33,812112,Beauty Salons ,,,4,BECK,ST,NW,,ATLANTA,GA,30318,4 BECK ST ATLANTA GA 30318,"4 Beck St NW, Atlanta, Georgia, 30318",-84.4134537,33.80689566,FALSE,8,C
LGB-066826-2020,ANGEL NAILS,,Educational Services,,,2025-02-01 15:34:26,812112,Beauty Salons ,,,566,PONCE DE LEON,AVE,NE,STE 300,ATLANTA,GA,30308,566 PONCE DE LEON AVE ATLANTA GA 30308,"566 Ponce de Leon Ave NE, Atlanta, Georgia, 30308",-84.36793552,33.77398056,FALSE,6,E
LGB-066883-2020,OFF THE HOOK BARBER SHOP,,Educational Services,,,2025-02-11 11:44:15,812111,Barber Shops ,,,257,PETERS,ST,SW,SUITE  A,ATLANTA,GA,30313,257 PETERS ST ATLANTA GA 30313,"257 Peters St SW, Atlanta, Georgia, 30313",-84.40155299,33.74780199,FALSE,4,M
LGB-067834-2020,MAURICE ROOM,,Educational Services,,,2025-01-31 15:34:26,812112,Beauty Salons ,,,1951,PIEDMONT,CIR,NE,,ATLANTA,GA,30324,1951 PIEDMONT CIR ATLANTA GA 30324,"1951 Piedmont Cir NE, Atlanta, Georgia, 30324",-84.36742733,33.81068764,FALSE,6,F
LGB-071500-2020,"BOB STEELE SALON, INC.",,Educational Services,,,2025-01-24 15:04:33,812112,Beauty Salons ,,,4403,NORTHSIDE,PKWY,NW,STE. 160,ATLANTA,GA,30327,4403 NORTHSIDE PKWY ATLANTA GA 30327,"4403 Northside Pkwy NW, Atlanta, Georgia, 30327",-84.44918399,33.86806302,FALSE,8,A
LGB-073659-2020,DEBORAH L TOWNS,,Educational Services,,,2025-02-11 13:07:45,812112,Beauty Salons ,,,2250,Marietta,BLVD,NW,#308,ATLANTA,GA,30318,2250 Marietta BLVD ATLANTA GA 30318,"2250 Marietta Blvd, Atlanta, Georgia, 30318",-84.46382024,33.80585723,TRUE,9,G
LGB-074902-2020,SALON RED,,Educational Services,,,2025-02-14 13:10:08,812112,Beauty Salons ,,,1642,DEKALB,AVE,NE,,ATLANTA,GA,30307,1642 DEKALB AVE ATLANTA GA 30307,"1642 Dekalb Ave NE, Atlanta, Georgia, 30307",-84.33285115,33.76212563,FALSE,5,N
LGB-074902-2020,SALON RED,,Educational Services,,,2025-02-14 13:10:08,812112,Beauty Salons ,,,1642,DEKALB,AVE,NE,,ATLANTA,GA,30307,1642 DEKALB AVE ATLANTA GA 30307,"1642 Dekalb Ave NE, Atlanta, Georgia, 30307",-84.33285115,33.76212563,FALSE,5,N
LGB-075428-2020,SALON NEXT,,Educational Services,,,2025-01-05 17:04:41,812112,Beauty Salons ,,,857,COLLIER,RD,NW,SUITE #4,ATLANTA,GA,30318,857 COLLIER RD ATLANTA GA 30318,"857 Collier Rd NW, Atlanta, Georgia, 30318",-84.41597481,33.81038283,FALSE,8,C
LGB-075824-2020,"KREATIVE HAIR STYLES, INC",,Educational Services,,,2025-02-14 09:11:44,812112,Beauty Salons ,,,1398,METROPOLITAN,PKWY,SW,,ATLANTA,GA,30310,1398 METROPOLITAN PKWY ATLANTA GA 30310,"1398 Metropolitan Pkwy SW, Atlanta, Georgia, 30310",-84.40760858,33.71664675,TRUE,12,X
LGB-076403-2020,JAKOTES,,Educational Services,,,2025-02-15 18:40:20,812112,Beauty Salons ,,,1276,Ralph David Abernathy,BLVD,SW,Suite 110,ATLANTA,GA,30310,1276 Ralph David Abernathy BLVD ATLANTA GA 30310,"1276 Ralph David Abernathy Blvd SW, Atlanta, Georgia, 30310",-84.42952139,33.73855465,FALSE,4,T
LGB-080600-2020,MATHIS HAIR WORKS,,Educational Services,,,2025-02-11 11:46:28,812112,Beauty Salons ,,,3115,PIEDMONT,RD,NE,STE F102,ATLANTA,GA,30305,3115 PIEDMONT RD ATLANTA GA 30305,3115 Piedmont Road,-84.369658,33.841552,FALSE,7,B
LGB-081213-2020,PARKWAY HAIR STUDIO,,Educational Services,,,2025-02-13 09:10:23,812112,Beauty Salons ,,,3401,NORTHSIDE,PKWY,NW,,ATLANTA,GA,30327,3401 NORTHSIDE PKWY ATLANTA GA 30327,"3401 Northside Pkwy NW, Atlanta, Georgia, 30327",-84.42790477,33.84731546,FALSE,8,A
LGB-082691-2020,DANA BLAKE SCOPA,,Educational Services,,,2025-02-11 13:05:23,812112,Beauty Salons ,,,175,W WIEUCA,RD,NE,,ATLANTA,GA,30342,175 W WIEUCA RD ATLANTA GA 30342,"175 W Wieuca Rd NE, Atlanta, Georgia, 30342",-84.38129049,33.87695555,FALSE,8,B
LGB-082839-2020,BEAUTY LAND BB BEAUTY SUPPLY,,Educational Services,,,2025-02-13 15:10:08,812112,Beauty Salons ,,,2076,CAMPBELLTON,RD,SW,,ATLANTA,GA,30311,2076 CAMPBELLTON RD ATLANTA GA 30311,"2076 Campbellton Rd SW, Atlanta, Georgia, 30311",-84.456606,33.70528998,TRUE,11,R
LGB-083709-2020,PHILIP WYATT SALON,,Educational Services,,,2025-01-12 15:07:24,812112,Beauty Salons ,,,110,E ANDREWS,DR,NW,STE 303,ATLANTA,GA,30305,110 E ANDREWS DR ATLANTA GA 30305,"110 E Andrews Dr NW, Atlanta, Georgia, 30305",-84.38272111,33.84285432,FALSE,8,B
LGB-084343-2020,FATOUMATA BARRY,,Educational Services,,,2025-01-06 15:34:43,812112,Beauty Salons ,,,3024,MARTIN L KING JR,DR,SW,STE-E,ATLANTA,GA,30311,3024 MARTIN L KING JR DR ATLANTA GA 30311,"3024 Martin Luther King Jr Dr SW, Atlanta, Georgia, 30311",-84.48627581,33.75262797,FALSE,10,I
LGB-085530-2020,MIDTOWN NAILS SPA LLC,,Educational Services,,,2025-02-11 22:09:39,812112,Beauty Salons ,,,650,PONCE DE LEON,AVE,NE,STE 630B,ATLANTA,GA,30308,650 PONCE DE LEON AVE ATLANTA GA 30308,"650 Ponce de Leon Ave NE, Atlanta, Georgia, 30308",-84.36585597,33.77406999,FALSE,6,E
LGB-092283-2020,LAZE HAIR BRAIDING,,Educational Services,,,2025-02-11 09:09:09,812112,Beauty Salons ,,,816,RALPH D ABERNATHY,BLVD,SW,,ATLANTA,GA,30310,816 RALPH D ABERNATHY BLVD ATLANTA GA 30310,"816 Ralph David Abernathy Blvd SW, Atlanta, Georgia, 30310",-84.41449305,33.73805124,FALSE,4,T
LGB-092973-2020,MINERVA NAILS II,,Educational Services,,,2025-01-23 11:04:34,812113,Nail Salons ,,,1170,COLLIER,RD,NW,A,ATLANTA,GA,30318,1170 COLLIER RD ATLANTA GA 30318,"1170 Collier Rd NW, Atlanta, Georgia, 30318",-84.42599562,33.81091726,FALSE,9,D
LGB-095799-2020,STUDIO 305 LLC.,,Educational Services,,,2025-01-03 06:10:07,812112,Beauty Salons ,,,3003,PIEDMONT,RD,NE,,ATLANTA,GA,30305,3003 PIEDMONT RD ATLANTA GA 30305,"3003 Piedmont Rd NE, Atlanta, Georgia, 30305",-84.36763964,33.83672187,FALSE,7,B
LGB-096434-2020,GOT U LOOKIN GOOD BARBER SHOP,,Educational Services,,,2025-02-14 09:11:14,812111,Barber Shops ,,,1728,CAMPBELLTON,RD,SW,SUITE B,ATLANTA,GA,30311,1728 CAMPBELLTON RD ATLANTA GA 30311,"1728 Campbellton Rd SW, Atlanta, Georgia, 30311",-84.44456196,33.71102886,TRUE,12,R
LGB-097489-2020,HAIR BY SPENCER,,Educational Services,,,2025-02-10 19:13:47,812112,Beauty Salons ,,,1054,LINDBERGH,DR,NE,,ATLANTA,GA,30324,1054 LINDBERGH DR ATLANTA GA 30324,"1054 Lindbergh Dr, Atlanta, Georgia, 30324",-84.35317541,33.81925411,FALSE,6,F
LGB-098073-2020,IRINA SNYDERMAN,,Educational Services,,,2025-02-10 11:03:48,812112,Beauty Salons ,,,2996,GRANDVIEW,AVE,NE,STE 204,ATLANTA,GA,30305,2996 GRANDVIEW AVE ATLANTA GA 30305,"2996 Grandview Ave NE, Atlanta, Georgia, 30305",-84.37674113,33.83648629,FALSE,7,B
LGB-098188-2020,J & J BEAUTY SUPPLY,,Educational Services,,,2025-01-23 17:05:20,812112,Beauty Salons ,,,1206,SIMPSON,RD,NW,,ATLANTA,GA,30303,1206 SIMPSON RD ATLANTA GA 30303,"1206 Simpson Rd NW, Atlanta, Georgia, 30314",-84.42694814,33.76330943,TRUE,3,K
LGB-098188-2020,J & J BEAUTY SUPPLY,,Educational Services,,,2025-01-23 17:05:20,812112,Beauty Salons ,,,1206,SIMPSON,RD,NW,,ATLANTA,GA,30303,1206 SIMPSON RD ATLANTA GA 30303,"1206 Simpson Rd NW, Atlanta, Georgia, 30314",-84.42694814,33.76330943,TRUE,3,K
LGB-098197-2020,"CHALAE,INC-SALON STUDIOS #101",,Educational Services,,,2025-02-14 09:13:45,812112,Beauty Salons ,,,3232,PEACHTREE,RD,NW,STE. B,ATLANTA,GA,30305,3232 PEACHTREE RD ATLANTA GA 30305,"3232 Peachtree Rd NE, Atlanta, Georgia, 30305",-84.37412053,33.84442677,FALSE,7,B
LGB-098197-2020,"CHALAE,INC-SALON STUDIOS #101",,Educational Services,,,2025-02-14 09:13:45,812112,Beauty Salons ,,,3232,PEACHTREE,RD,NW,STE. B,ATLANTA,GA,30305,3232 PEACHTREE RD ATLANTA GA 30305,"3232 Peachtree Rd NE, Atlanta, Georgia, 30305",-84.37412053,33.84442677,FALSE,7,B
LGB-098199-2020,BRIAN SPOFFORD COSMEO,,Educational Services,,,2025-01-18 17:13:21,812112,Beauty Salons ,,,29837,HARDMAN,CT,NE,,ATLANTA,GA,30305,29837 HARDMAN CT ATLANTA GA 30305,"Hardman Ct NE, Atlanta, Georgia, 30305",-84.3706249,33.83627049,FALSE,7,B
LGB-099789-2020,"BEAUTIFUL LOOKS SALON, INC.",,Educational Services,,,2025-02-15 18:56:53,812112,Beauty Salons ,,,2945,STONE HOGAN,RD,SW,STE-115,ATLANTA,GA,30331,2945 STONE HOGAN RD ATLANTA GA 30331,"2945 Hogan Rd, Atlanta, Georgia, 30344",-84.48485285,33.67800626,FALSE,,
LGB-100884-2020,PALUCCI'S HAIR SALON,,Educational Services,,,2025-02-14 17:08:54,812112,Beauty Salons ,,,880,GLENWOOD,AVE,SE,SUITE A,ATLANTA,GA,30316,880 GLENWOOD AVE ATLANTA GA 30316,"880 Glenwood Ave SE, Atlanta, Georgia, 30316",-84.35887669,33.74096852,FALSE,1,W
LGB-100936-2019,HAIR TO DYE FOR,,Educational Services,,,2025-02-15 18:54:39,812112,Beauty Salons ,,,2740,GREENBRIAR,PKWY,SW,STE B-7,ATLANTA,GA,30331,2740 GREENBRIAR PKWY ATLANTA GA 30331,"2740 Greenbriar Pkwy SW, Atlanta, Georgia, 30331",-84.4886097,33.68859499,TRUE,11,R
LGB-102400-2020,NAILS BY MAI,,Educational Services,,,2025-01-22 15:04:58,812112,Beauty Salons ,,,375,PHARR,RD,NE,#101,ATLANTA,GA,30305,375 PHARR RD ATLANTA GA 30305,"375 Pharr Rd NE, Atlanta, Georgia, 30305",-84.37574402,33.83648701,FALSE,7,B
LGB-103162-2020,"HEALTHY HAIR CONNECTION, INC.",,Educational Services,,,2025-02-28 23:07:18,812112,Beauty Salons ,,,659,AUBURN,AVE,NE,STE-112,ATLANTA,GA,30312,659 AUBURN AVE ATLANTA GA 30312,"659 Auburn Ave NE, Atlanta, Georgia, 30312",-84.3659827,33.75698939,FALSE,2,M
LGB-103725-2020,BUCKHEAD NAIL & TOE SPA,,Educational Services,,,2025-01-11 15:04:34,812112,Beauty Salons ,,,3210,ROSWELL,RD,NW,STE-B,ATLANTA,GA,30305,3210 ROSWELL RD ATLANTA GA 30305,"3210 Roswell Rd NW, Atlanta, Georgia, 30305",-84.37950196,33.84268832,FALSE,8,B
LGB-104618-2020,D'S BARBER STUDIO,,Educational Services,,,2025-01-06 17:04:08,812111,Barber Shops ,,,3010,CAMPBELLTON,RD,SW,STE C,ATLANTA,GA,30311,3010 CAMPBELLTON RD ATLANTA GA 30311,"3010 Campbellton Rd SW, Atlanta, Georgia, 30311",-84.48665839,33.69532708,TRUE,11,R
LGB-105146-2020,"AFRO-DISIAC, INC",VINTAGE HAIR GALLERY,Educational Services,,,2025-02-12 13:10:23,812111,Barber Shops ,,,57,FORSYTH,ST,NW,R4,ATLANTA,GA,30303,57 FORSYTH ST ATLANTA GA 30303,"57 Forsyth St NW, Atlanta, Georgia, 30303",-84.3898889,33.75604743,FALSE,2,M
LGB-105146-2020,"AFRO-DISIAC, INC",VINTAGE HAIR GALLERY,Educational Services,,,2025-02-12 13:10:23,812111,Barber Shops ,,,57,FORSYTH,ST,NW,R4,ATLANTA,GA,30303,57 FORSYTH ST ATLANTA GA 30303,"57 Forsyth St NW, Atlanta, Georgia, 30303",-84.3898889,33.75604743,FALSE,2,M
LGB-105146-2020,"AFRO-DISIAC, INC",VINTAGE HAIR GALLERY,Educational Services,,,2025-02-12 13:10:23,812111,Barber Shops ,,,57,FORSYTH,ST,NW,R4,ATLANTA,GA,30303,57 FORSYTH ST ATLANTA GA 30303,"57 Forsyth St NW, Atlanta, Georgia, 30303",-84.3898889,33.75604743,FALSE,2,M
LGB-105146-2020,"AFRO-DISIAC, INC",VINTAGE HAIR GALLERY,Educational Services,,,2025-02-12 13:10:23,812111,Barber Shops ,,,57,FORSYTH,ST,NW,R4,ATLANTA,GA,30303,57 FORSYTH ST ATLANTA GA 30303,"57 Forsyth St NW, Atlanta, Georgia, 30303",-84.3898889,33.75604743,FALSE,2,M
LGB-105591-2020,TRACY B HAIR STUDIO INC,,Educational Services,,,2025-02-16 18:37:54,812112,Beauty Salons ,,,365,PEACHTREE HILLS,AVE,NE,STE-103,ATLANTA,GA,30305,365 PEACHTREE HILLS AVE ATLANTA GA 30305,"365 Peachtree Hills Ave NE, Atlanta, Georgia, 30305",-84.37304672,33.82025901,FALSE,7,B
LGB-105718-2020,JUNG STUDIO,,Educational Services,,,2025-02-28 10:24:24,812112,Beauty Salons ,,,3754,WIEUCA,RD,NE,,ATLANTA,GA,30342,3754 WIEUCA RD ATLANTA GA 30342,"3754 Wieuca Rd NE, Atlanta, Georgia, 30342",-84.36214094,33.85704886,FALSE,7,B
LGB-106664-2020,BE ANOTHER YOU,,Educational Services,,,2025-02-14 13:11:38,812112,Beauty Salons ,,,3271,ROSWELL,RD,NE,,ATLANTA,GA,30305,3271 ROSWELL RD ATLANTA GA 30305,"3271 Roswell Rd NE, Atlanta, Georgia, 30305",-84.37932028,33.84388774,FALSE,7,B
LGB-107068-2020,DAVID HAIR STUDIO INC,,Educational Services,,,2025-02-12 09:05:56,812112,Beauty Salons ,,,2221,PEACHTREE,RD,NE,STE-S,ATLANTA,GA,30309,2221 PEACHTREE RD ATLANTA GA 30309,"2221 Peachtree Rd NE, Atlanta, Georgia, 30309",-84.39114199,33.81458899,FALSE,7,E
LGB-107091-2020,NAIL LUV,,Educational Services,,,2025-02-12 15:05:58,812112,Beauty Salons ,,,2685,METROPOLITAN,PKWY,SW,# J-4,ATLANTA,GA,30315,2685 METROPOLITAN PKWY ATLANTA GA 30315,"2685 Metropolitan Pkwy SW, Atlanta, Georgia, 30315",-84.40902109,33.68265742,TRUE,12,X
LGB-108354-2020,DADA,,Educational Services,,,2025-01-12 15:12:44,812112,Beauty Salons ,,,110,HURT,ST,NE,,ATLANTA,GA,30307,110 HURT ST ATLANTA GA 30307,"110 Hurt St NE, Atlanta, Georgia, 30307",-84.35412905,33.75738493,FALSE,2,N
LGB-108478-2020,SAM'S HAIR SALON,,Educational Services,,,2025-02-11 02:54:56,812112,Beauty Salons ,,,2000,CHESHIRE BRIDGE,RD,NE,STE. C,ATLANTA,GA,30324,2000 CHESHIRE BRIDGE RD ATLANTA GA 30324,"2000 Cheshire Bridge Rd NE, Atlanta, Georgia, 30324",-84.35749946,33.81161777,FALSE,6,F
LGB-109005-2020,THE NAPPY PARLOR LLC,,Educational Services,,,2025-02-07 16:10:06,812112,Beauty Salons ,,,1376,FAIRBANKS,ST,SW,,ATLANTA,GA,30310,1376 FAIRBANKS ST ATLANTA GA 30310,"1376 Fairbanks St SW, Atlanta, Georgia, 30310",-84.4148176,33.71730867,TRUE,12,X
LGB-109012-2020,J MILES SALON,,Educational Services,,,2025-02-02 15:35:07,812112,Beauty Salons ,,,572,EDGEWOOD,AVE,NE,STE 120,ATLANTA,GA,30312,572 EDGEWOOD AVE ATLANTA GA 30312,"572 Edgewood Ave NE, Atlanta, Georgia, 30312",-84.36839803,33.75490599,FALSE,2,M
LGB-113931-2020,LOFT 109 BARBER STUDIO LLC.,,Educational Services,,,2025-02-11 13:05:20,812111,Barber Shops ,,,621,GLEN IRIS,DR,NE,STE 109,ATLANTA,GA,30308,621 GLEN IRIS DR ATLANTA GA 30308,"621 Glen Iris Dr NE, Atlanta, Georgia, 30308",-84.36763375,33.77127702,FALSE,2,M
LGB-114510-2020,CASCADE NAILS,,Educational Services,,,2025-01-15 13:06:26,812112,Beauty Salons ,,,590,CASCADE,RD,SW,,ATLANTA,GA,30310,590 CASCADE RD ATLANTA GA 30310,"590 Cascade Ave SW, Atlanta, Georgia, 30310",-84.43301102,33.737543,FALSE,4,T
LGB-115144-2020,HERMAN'S SECRET II,,Educational Services,,,2025-02-13 09:12:10,812112,Beauty Salons ,,,2756,MARTIN L KING JR,DR,SW,,ATLANTA,GA,30311,2756 MARTIN L KING JR DR ATLANTA GA 30311,"2756 Martin Luther King Jr Dr SW, Atlanta, Georgia, 30311",-84.47769394,33.75405799,FALSE,10,I
LGB-117155-2020,FAITH BARBER SHOP,,Educational Services,,,2025-02-04 10:05:59,812111,Barber Shops ,,,1230,CAROLINE,ST,NE,#115-B,ATLANTA,GA,30307,1230 CAROLINE ST ATLANTA GA 30307,"1230 Caroline St NE, Atlanta, Georgia, 30307",-84.34844801,33.75860199,FALSE,5,O
LGB-117294-2020,Q-NAIL,,Educational Services,,,2025-02-07 08:49:05,812112,Beauty Salons ,,,530,JOSEPH E LOWERY,BLVD,SW,STE B,ATLANTA,GA,30310,530 JOSEPH E LOWERY BLVD ATLANTA GA 30310,"530 Joseph E Lowery Blvd SW, Atlanta, Georgia, 30310",-84.41720175,33.74095934,FALSE,4,T
LGB-118145-2020,POOCHIEZ PAWZ NAIL STUDIO,,Educational Services,,,2025-02-08 16:04:24,812112,Beauty Salons ,,,2905,CAMPBELLTON,RD,SW,STE-F,ATLANTA,GA,30311,2905 CAMPBELLTON RD ATLANTA GA 30311,"2905 Campbellton Rd SW, Atlanta, Georgia, 30311",-84.48390016,33.69828816,TRUE,11,R
LGB-118236-2020,C. NAILS & SPA,,Educational Services,,,2025-02-13 15:07:58,812112,Beauty Salons ,,,1270,CAROLINE,ST,NE,STE D.130,ATLANTA,GA,30303,1270 CAROLINE ST ATLANTA GA 30303,"1270 Caroline St NE, Atlanta, Georgia, 30307",-84.34749474,33.75860069,FALSE,5,O
LGB-118466-2020,GREAT CLIP,,Educational Services,,,2025-01-05 17:04:27,812112,Beauty Salons ,,,1245,CAROLINE,ST,NE,STE-F120,ATLANTA,GA,30307,1245 CAROLINE ST ATLANTA GA 30307,"1245 Caroline St NE, Atlanta, Georgia, 30307",-84.34790847,33.75822208,FALSE,5,O
LGB-118783-2020,TIMA HAIR BRAIDING & BOUTIQUE,,Educational Services,,,2025-02-13 09:12:19,812111,Barber Shops ,,,2637,MARTIN L KING JR,DR,SW,STE-5,ATLANTA,GA,30311,2637 MARTIN L KING JR DR ATLANTA GA 30311,"2637 Martin Luther King Jr Dr SW, Atlanta, Georgia, 30311",-84.47430204,33.75418799,FALSE,10,I
LGB-120814-2020,SNIP & TIPS,,Educational Services,,,2025-01-22 13:04:04,812112,Beauty Salons ,,,2457,MARTIN L KING JR,DR,SW,,ATLANTA,GA,30311,2457 MARTIN L KING JR DR ATLANTA GA 30311,"2457 Martin Luther King Jr Dr SW, Atlanta, Georgia, 30311",-84.46829599,33.75259015,FALSE,10,I
LGB-120814-2020,SNIP & TIPS,,Educational Services,,,2025-01-22 13:04:04,812112,Beauty Salons ,,,2457,MARTIN L KING JR,DR,SW,,ATLANTA,GA,30311,2457 MARTIN L KING JR DR ATLANTA GA 30311,"2457 Martin Luther King Jr Dr SW, Atlanta, Georgia, 30311",-84.46829599,33.75259015,FALSE,10,I
LGB-121330-2020,ADORE HAIR STUDIOS INC,,Educational Services,,,2025-01-31 13:35:05,812112,Beauty Salons ,,,245,N HIGHLAND,AVE,NE,STE 170,ATLANTA,GA,30307,245 N HIGHLAND AVE ATLANTA GA 30307,"245 N Highland Ave NE, Atlanta, Georgia, 30307",-84.35984958,33.76169172,FALSE,2,N
LGB-121787-2020,MAGICAL NAILS & TAN LLC,,Educational Services,,,2025-02-10 15:06:53,812112,Beauty Salons ,,,3739,ROSWELL,RD,NE,,ATLANTA,GA,30342,3739 ROSWELL RD ATLANTA GA 30342,"3739 Roswell Rd NE, Atlanta, Georgia, 30342",-84.38124573,33.85730242,FALSE,7,B
LGB-123077-2020,EXXOTIC PINK FOXX SALON,,Educational Services,,,2025-01-14 09:35:08,812112,Beauty Salons ,,,547,JOSEPH E LOWERY,BLVD,SW,,ATLANTA,GA,30310,547 JOSEPH E LOWERY BLVD ATLANTA GA 30310,"547 Joseph E Lowery Blvd SW, Atlanta, Georgia, 30310",-84.41810691,33.74012014,FALSE,4,T
LGB-123077-2020,EXXOTIC PINK FOXX SALON,,Educational Services,,,2025-01-14 09:35:08,812112,Beauty Salons ,,,547,JOSEPH E LOWERY,BLVD,SW,,ATLANTA,GA,30310,547 JOSEPH E LOWERY BLVD ATLANTA GA 30310,"547 Joseph E Lowery Blvd SW, Atlanta, Georgia, 30310",-84.41810691,33.74012014,FALSE,4,T
LGB-124814-2020,ECOCOLORS,,Educational Services,,,2025-02-05 09:35:10,812112,Beauty Salons ,,,1860,N ROCK SPRINGS,RD,NE,STE-101,ATLANTA,GA,30324,1860 N ROCK SPRINGS RD ATLANTA GA 30324,"1860 N Rock Springs Rd NE, Atlanta, Georgia, 30324",-84.36697252,33.80502277,FALSE,6,F
LGB-125458-2020,JAMAEL SALON INC,,Educational Services,,,2025-02-11 22:08:14,812112,Beauty Salons ,,,245,N HIGHLAND,AVE,NE,STE-170,ATLANTA,GA,30307,245 N HIGHLAND AVE ATLANTA GA 30307,"245 N Highland Ave NE, Atlanta, Georgia, 30307",-84.35984958,33.76169172,FALSE,2,N
LGB-125542-2020,WEST BARBER SHOP,,Educational Services,,,2025-02-15 18:56:20,812111,Barber Shops ,,,1961,HOWELL MILL,RD,NW,,ATLANTA,GA,30318,1961 HOWELL MILL RD ATLANTA GA 30318,"1961 Howell Mill Rd NW, Atlanta, Georgia, 30318",-84.4126803,33.80814841,FALSE,8,C
LGB-127174-2020,"TAE'S PLACE HAIR SALON, INC",,Educational Services,,,2025-02-10 19:12:42,812112,Beauty Salons ,,,2132,CAMPBELLTON,RD,SW,STE-D,ATLANTA,GA,30331,2132 CAMPBELLTON RD ATLANTA GA 30331,"2132 Campbellton Rd SW, Atlanta, Georgia, 30311",-84.45811063,33.70585303,TRUE,11,R
LGB-129714-2020,SALON MARTIN SPRADLIN,,Educational Services,,,2025-02-12 15:06:07,812112,Beauty Salons ,,,3232,Peachtree,RD,NE,STE-B STE-122,ATLANTA,GA,30305,3232 Peachtree RD ATLANTA GA 30305,"3232 Peachtree Rd NE, Atlanta, Georgia, 30305",-84.37412053,33.84442677,FALSE,7,B
LGB-130168-2020,NUBIANCE HAIR SALON/VICKI L. POUNCIE,,Educational Services,,,2025-02-15 18:55:19,812112,Beauty Salons ,,,2325,CHESHIRE BRIDGE,RD,NE,STE 100,ATLANTA,GA,30324,2325 CHESHIRE BRIDGE RD ATLANTA GA 30324,"2325 Cheshire Bridge Rd NE, Atlanta, Georgia, 30324",-84.3521099,33.81899712,FALSE,6,F
LGB-130168-2020,NUBIANCE HAIR SALON/VICKI L. POUNCIE,,Educational Services,,,2025-02-15 18:55:19,812112,Beauty Salons ,,,2325,CHESHIRE BRIDGE,RD,NE,STE 100,ATLANTA,GA,30324,2325 CHESHIRE BRIDGE RD ATLANTA GA 30324,"2325 Cheshire Bridge Rd NE, Atlanta, Georgia, 30324",-84.3521099,33.81899712,FALSE,6,F
LGB-130278-2020,LIKE THE RIVER SALON & SPA,,Educational Services,,,2025-02-24 23:04:51,812112,Beauty Salons ,,,1512,HOWELL MILL,RD,NW,,ATLANTA,GA,30318,1512 HOWELL MILL RD ATLANTA GA 30318,"1512 Howell Mill Rd NW, Atlanta, Georgia, 30318",-84.41616432,33.79622655,FALSE,9,D
LGB-130510-2020,EXPRESSIONS HAIR STUDIO,,Educational Services,,,2025-02-04 17:03:43,812112,Beauty Salons ,,,2382,BOLTON,RD,NW,,ATLANTA,GA,30318,2382 BOLTON RD ATLANTA GA 30318,"2382 Bolton Rd NW, Atlanta, Georgia, 30318",-84.45975013,33.82083137,FALSE,9,D
LGB-131177-2020,CAROLE BACHE ESTHETICS LLC,,Educational Services,,,2025-02-11 22:07:26,812112,Beauty Salons ,,,2382,BOLTON,RD,NW,,ATLANTA,GA,30318,2382 BOLTON RD ATLANTA GA 30318,"2382 Bolton Rd NW, Atlanta, Georgia, 30318",-84.45975013,33.82083137,FALSE,9,D
LGB-131446-2020,"STYLES BY ALLI, LLC",,Educational Services,,,2025-02-10 13:37:11,812112,Beauty Salons ,,,245,N HIGHLAND,AVE,NE,SUITE 170,ATLANTA,GA,30307,245 N HIGHLAND AVE ATLANTA GA 30307,"245 N Highland Ave NE, Atlanta, Georgia, 30307",-84.35984958,33.76169172,FALSE,2,N
LGB-132251-2020,ROCKY'S PRIMETIME BARBER SHOP,,Educational Services,,,2025-02-15 18:38:40,812111,Barber Shops ,,,2591,PIEDMONT,RD,NE,#1216,ATLANTA,GA,30324,2591 PIEDMONT RD ATLANTA GA 30324,"2591 Piedmont Rd NE, Atlanta, Georgia, 30324",-84.3666028,33.82463868,FALSE,6,B
LGB-132379-2020,SALON FAVOR,,Educational Services,,,2025-02-13 09:11:40,812112,Beauty Salons ,,,2945,STONE HOGAN,RD,SW,,ATLANTA,GA,30331,2945 STONE HOGAN RD ATLANTA GA 30331,"2945 Hogan Rd, Atlanta, Georgia, 30344",-84.48485285,33.67800626,FALSE,,
LGB-133036-2020,LOTUS HAIR ARTISANS,,Educational Services,,,2025-01-31 13:34:54,812112,Beauty Salons ,,,3655,ROSWELL,RD,NE,STE-310,ATLANTA,GA,30342,3655 ROSWELL RD ATLANTA GA 30342,"3655 Roswell Rd NE, Atlanta, Georgia, 30342",-84.38223899,33.855807,FALSE,7,B
LGB-133152-2020,SOEREN SALON INC,,Educational Services,,,2025-03-03 23:07:26,812112,Beauty Salons ,,,1258,W PACES FERRY,RD,NW,,ATLANTA,GA,30305,1258 W PACES FERRY RD ATLANTA GA 30305,"1258 W Paces Ferry Rd NW, Atlanta, Georgia, 30327",-84.42865495,33.84807826,FALSE,8,A
LGB-134053-2020,CUT CREATOR,,Educational Services,,,2025-01-12 15:07:29,812111,Barber Shops ,,,190,FAIRBURN,RD,NW,,ATLANTA,GA,30331,190 FAIRBURN RD ATLANTA GA 30331,"190 Fairburn Rd NW, Atlanta, Georgia, 30331",-84.50507025,33.76086766,TRUE,10,H
LGB-134114-2020,NAIL TALK & TAN SALON,,Educational Services,,,2025-02-20 23:05:26,812112,Beauty Salons ,,,2298,PEACHTREE,RD,NE,,ATLANTA,GA,30309,2298 PEACHTREE RD ATLANTA GA 30309,"2298 Peachtree Rd NW, Atlanta, Georgia, 30309",-84.39000633,33.81718876,FALSE,8,C
LGB-134618-2020,NAILS TOO!,,Educational Services,,,2025-01-08 13:04:04,812112,Beauty Salons ,,,349,DECATUR,ST,SE,UNIT# B2,ATLANTA,GA,30312,349 DECATUR ST ATLANTA GA 30312,"349 Decatur St SE, Atlanta, Georgia, 30312",-84.37828357,33.7495953,FALSE,5,M
LGB-136285-2020,BRAZILIAN WAX BY ANDREIA,,Educational Services,,,2025-02-04 14:39:57,812112,Beauty Salons ,,,3174,PEACHTREE,RD,NW,,ATLANTA,GA,30305,3174 PEACHTREE RD ATLANTA GA 30305,"3174 Peachtree Rd NE, Atlanta, Georgia, 30305",-84.37659227,33.84100485,FALSE,7,B
LGB-136512-2020,BROOKE BROADWAY SALON INC,,Educational Services,,,2025-02-15 19:10:05,812112,Beauty Salons ,,,2227,COLLEGE,AVE,NE,,ATLANTA,GA,30317,2227 COLLEGE AVE ATLANTA GA 30317,"2227 College Ave NE, Atlanta, Georgia, 30317",-84.31440542,33.76461521,FALSE,5,O
LGB-137443-2020,HIRA HAIR STUDIO,,Educational Services,,,2025-01-26 15:04:36,812112,Beauty Salons ,,,487,N HIGHLAND,AVE,NE,# 1,ATLANTA,GA,30307,487 N HIGHLAND AVE ATLANTA GA 30307,"487 N Highland Ave NE, Atlanta, Georgia, 30307",-84.35250947,33.76729989,FALSE,2,N
LGB-137522-2020,SHENICHAIR,,Educational Services,,,2025-02-24 23:04:54,812112,Beauty Salons ,,,2148,CHINABERRY,WAY,SW,,ATLANTA,GA,30311,2148 CHINABERRY WAY ATLANTA GA 30311,"2148 Chinaberry Way SW, Atlanta, Georgia, 30311",-84.47847656,33.69661827,TRUE,11,R
LGB-137784-2020,NAIL TEK & SPA,,Educational Services,,,2025-02-19 23:05:43,812112,Beauty Salons ,,,1801,HOWELL MILL,RD,NW,STE 480,ATLANTA,GA,30318,1801 HOWELL MILL RD ATLANTA GA 30318,"1801 Howell Mill Rd NW, Atlanta, Georgia, 30318",-84.41250294,33.80325804,FALSE,9,D
LGB-139017-2020,NAIL TALK & SPA,,Educational Services,,,2025-02-20 23:07:02,812112,Beauty Salons ,,,950,W PEACHTREE,ST,NE,STE 270,ATLANTA,GA,30308,950 W PEACHTREE ST ATLANTA GA 30308,"950 W Peachtree St, Atlanta, Georgia, 30309",-84.38747608,33.78050826,FALSE,2,E
LGB-139243-2020,FIRST CLASS BARBER/HAIR SALON,,Educational Services,,,2025-01-21 20:12:41,812111,Barber Shops ,,,506,FLAT SHOALS,AVE,SE,,ATLANTA,GA,30316,506 FLAT SHOALS AVE ATLANTA GA 30316,"506 Flat Shoals Ave SE, Atlanta, Georgia, 30316",-84.34553212,33.74040404,FALSE,5,W
